<?xml version="1.0" encoding="UTF-8"?>
<kml xmlns="http://earth.google.com/kml/2.1">
<Document>
	<name>1102249 server hits, 11861 cities, 178 countries</name>
	<Style id="sphere_normal">
		<IconStyle>
			<scale>.3</scale>
			<Icon>
				<href>http://siggy.homelinux.org/kml/sphere_white.png</href>
			</Icon>
		</IconStyle>
		<LabelStyle>
			<scale>0</scale>
		</LabelStyle>
		<LineStyle>
			<color>7fffffff</color>
			<width>1</width>
		</LineStyle>
	</Style>
	<Style id="sphere_highlight">
		<IconStyle>
			<scale>.6</scale>
			<Icon>
				<href>http://siggy.homelinux.org/kml/sphere_gold.png</href>
			</Icon>
		</IconStyle>
		<LabelStyle>
			<scale>1</scale>
		</LabelStyle>
		<LineStyle>
			<color>7f00ffff</color>
			<width>10</width>
		</LineStyle>
	</Style>
	<StyleMap id="sphere_icon">
		<Pair>
			<key>normal</key>
			<styleUrl>#sphere_normal</styleUrl>
		</Pair>
		<Pair>
			<key>highlight</key>
			<styleUrl>#sphere_highlight</styleUrl>
		</Pair>
	</StyleMap>
	<Folder>
		<name>1102249 server hits, 11861 cities, 178 countries</name>
		<Folder>
			<name>AFGHANISTAN: 803 hits, 26 cities</name>
			<Placemark>
				<name>Afghanistan, AFGHANISTAN: 2 hits</name>
				<styleUrl>#sphere_icon</styleUrl>
				<Point>
					<altitudeMode>relativeToGround</altitudeMode>
					<coordinates>65.0,33.0,247835.000000</coordinates>
					<extrude>1</extrude>
				</Point>
			</Placemark>
			<Placemark>
				<name>A al, AFGHANISTAN: 24 hits</name>
				<styleUrl>#sphere_icon</styleUrl>
				<Point>
					<altitudeMode>relativeToGround</altitudeMode>
					<coordinates>65.75,34.25,726146.000000</coordinates>
					<extrude>1</extrude>
				</Point>
			</Placemark>
			<Placemark>
				<name>Bagat ƒa¦t, AFGHANISTAN: 6 hits</name>
				<styleUrl>#sphere_icon</styleUrl>
				<Point>
					<altitudeMode>relativeToGround</altitudeMode>
					<coordinates>63.9167,30.45,438977.000000</coordinates>
					<extrude>1</extrude>
				</Point>
			</Placemark>
			<Placemark>
				<name>Bagråm, AFGHANISTAN: 104 hits</name>
				<styleUrl>#sphere_icon</styleUrl>
				<Point>
					<altitudeMode>relativeToGround</altitudeMode>
					<coordinates>69.2833,34.9667,1049887.000000</coordinates>
					<extrude>1</extrude>
				</Point>
			</Placemark>
			<Placemark>
				<name>Båbu , AFGHANISTAN: 5 hits</name>
				<styleUrl>#sphere_icon</styleUrl>
				<Point>
					<altitudeMode>relativeToGround</altitudeMode>
					<coordinates>65.6667,31.7167,404203.000000</coordinates>
					<extrude>1</extrude>
				</Point>
			</Placemark>
			<Placemark>
				<name>Bå£åmtðy, AFGHANISTAN: 2 hits</name>
				<styleUrl>#sphere_icon</styleUrl>
				<Point>
					<altitudeMode>relativeToGround</altitudeMode>
					<coordinates>66.65,32.65,247835.000000</coordinates>
					<extrude>1</extrude>
				</Point>
			</Placemark>
			<Placemark>
				<name>Cabal, AFGHANISTAN: 2 hits</name>
				<styleUrl>#sphere_icon</styleUrl>
				<Point>
					<altitudeMode>relativeToGround</altitudeMode>
					<coordinates>66.2167,34.5833,247835.000000</coordinates>
					<extrude>1</extrude>
				</Point>
			</Placemark>
			<Placemark>
				<name>Cabul, AFGHANISTAN: 17 hits</name>
				<styleUrl>#sphere_icon</styleUrl>
				<Point>
					<altitudeMode>relativeToGround</altitudeMode>
					<coordinates>69.1833,34.5167,652039.000000</coordinates>
					<extrude>1</extrude>
				</Point>
			</Placemark>
			<Placemark>
				<name>Candahar, AFGHANISTAN: 147 hits</name>
				<styleUrl>#sphere_icon</styleUrl>
				<Point>
					<altitudeMode>relativeToGround</altitudeMode>
					<coordinates>65.7167,31.6167,1127321.000000</coordinates>
					<extrude>1</extrude>
				</Point>
			</Placemark>
			<Placemark>
				<name>Caubul, AFGHANISTAN: 2 hits</name>
				<styleUrl>#sphere_icon</styleUrl>
				<Point>
					<altitudeMode>relativeToGround</altitudeMode>
					<coordinates>69.1833,34.5167,247835.000000</coordinates>
					<extrude>1</extrude>
				</Point>
			</Placemark>
			<Placemark>
				<name>Dab Kalay, AFGHANISTAN: 1 hits</name>
				<styleUrl>#sphere_icon</styleUrl>
				<Point>
					<altitudeMode>relativeToGround</altitudeMode>
					<coordinates>66.1,32.5333,156367.000000</coordinates>
					<extrude>1</extrude>
				</Point>
			</Placemark>
			<Placemark>
				<name>Kaboul, AFGHANISTAN: 124 hits</name>
				<styleUrl>#sphere_icon</styleUrl>
				<Point>
					<altitudeMode>relativeToGround</altitudeMode>
					<coordinates>69.1833,34.5167,1089219.000000</coordinates>
					<extrude>1</extrude>
				</Point>
			</Placemark>
			<Placemark>
				<name>Kabul, AFGHANISTAN: 177 hits</name>
				<styleUrl>#sphere_icon</styleUrl>
				<Point>
					<altitudeMode>relativeToGround</altitudeMode>
					<coordinates>69.1833,34.5167,1168958.000000</coordinates>
					<extrude>1</extrude>
				</Point>
			</Placemark>
			<Placemark>
				<name>Kalai-Naw, AFGHANISTAN: 38 hits</name>
				<styleUrl>#sphere_icon</styleUrl>
				<Point>
					<altitudeMode>relativeToGround</altitudeMode>
					<coordinates>63.1167,34.9833,826462.000000</coordinates>
					<extrude>1</extrude>
				</Point>
			</Placemark>
			<Placemark>
				<name>Kandhar, AFGHANISTAN: 1 hits</name>
				<styleUrl>#sphere_icon</styleUrl>
				<Point>
					<altitudeMode>relativeToGround</altitudeMode>
					<coordinates>65.7167,31.6167,156367.000000</coordinates>
					<extrude>1</extrude>
				</Point>
			</Placemark>
			<Placemark>
				<name>Karchi, AFGHANISTAN: 12 hits</name>
				<styleUrl>#sphere_icon</styleUrl>
				<Point>
					<altitudeMode>relativeToGround</altitudeMode>
					<coordinates>70.45,36.9167,578626.000000</coordinates>
					<extrude>1</extrude>
				</Point>
			</Placemark>
			<Placemark>
				<name>Kha bolåq, AFGHANISTAN: 1 hits</name>
				<styleUrl>#sphere_icon</styleUrl>
				<Point>
					<altitudeMode>relativeToGround</altitudeMode>
					<coordinates>68.15,33.2833,156367.000000</coordinates>
					<extrude>1</extrude>
				</Point>
			</Placemark>
			<Placemark>
				<name>Konduz, AFGHANISTAN: 29 hits</name>
				<styleUrl>#sphere_icon</styleUrl>
				<Point>
					<altitudeMode>relativeToGround</altitudeMode>
					<coordinates>68.8667,36.7167,767276.000000</coordinates>
					<extrude>1</extrude>
				</Point>
			</Placemark>
			<Placemark>
				<name>Kåbol, AFGHANISTAN: 60 hits</name>
				<styleUrl>#sphere_icon</styleUrl>
				<Point>
					<altitudeMode>relativeToGround</altitudeMode>
					<coordinates>69.1833,34.5167,927372.000000</coordinates>
					<extrude>1</extrude>
				</Point>
			</Placemark>
			<Placemark>
				<name>Kåbuli, AFGHANISTAN: 5 hits</name>
				<styleUrl>#sphere_icon</styleUrl>
				<Point>
					<altitudeMode>relativeToGround</altitudeMode>
					<coordinates>68.3333,33.4333,404203.000000</coordinates>
					<extrude>1</extrude>
				</Point>
			</Placemark>
			<Placemark>
				<name>Mahmud-e, AFGHANISTAN: 6 hits</name>
				<styleUrl>#sphere_icon</styleUrl>
				<Point>
					<altitudeMode>relativeToGround</altitudeMode>
					<coordinates>69.3167,35.0167,438977.000000</coordinates>
					<extrude>1</extrude>
				</Point>
			</Placemark>
			<Placemark>
				<name>Maimanah, AFGHANISTAN: 17 hits</name>
				<styleUrl>#sphere_icon</styleUrl>
				<Point>
					<altitudeMode>relativeToGround</altitudeMode>
					<coordinates>64.7833,35.9167,652039.000000</coordinates>
					<extrude>1</extrude>
				</Point>
			</Placemark>
			<Placemark>
				<name>P¿rozay, AFGHANISTAN: 2 hits</name>
				<styleUrl>#sphere_icon</styleUrl>
				<Point>
					<altitudeMode>relativeToGround</altitudeMode>
					<coordinates>64.4167,32.5,247835.000000</coordinates>
					<extrude>1</extrude>
				</Point>
			</Placemark>
			<Placemark>
				<name>Robåt, AFGHANISTAN: 3 hits</name>
				<styleUrl>#sphere_icon</styleUrl>
				<Point>
					<altitudeMode>relativeToGround</altitudeMode>
					<coordinates>60.9667,29.8333,312734.000000</coordinates>
					<extrude>1</extrude>
				</Point>
			</Placemark>
			<Placemark>
				<name>Tåbøt, AFGHANISTAN: 10 hits</name>
				<styleUrl>#sphere_icon</styleUrl>
				<Point>
					<altitudeMode>relativeToGround</altitudeMode>
					<coordinates>67.15,32.9333,540941.000000</coordinates>
					<extrude>1</extrude>
				</Point>
			</Placemark>
			<Placemark>
				<name>†å kay, AFGHANISTAN: 6 hits</name>
				<styleUrl>#sphere_icon</styleUrl>
				<Point>
					<altitudeMode>relativeToGround</altitudeMode>
					<coordinates>70.35,34.0667,438977.000000</coordinates>
					<extrude>1</extrude>
				</Point>
			</Placemark>
		</Folder>
		<Folder>
			<name>ALBANIA: 163 hits, 9 cities</name>
			<Placemark>
				<name>Dures, ALBANIA: 10 hits</name>
				<styleUrl>#sphere_icon</styleUrl>
				<Point>
					<altitudeMode>relativeToGround</altitudeMode>
					<coordinates>19.4333,41.3167,540941.000000</coordinates>
					<extrude>1</extrude>
				</Point>
			</Placemark>
			<Placemark>
				<name>Kosova, ALBANIA: 2 hits</name>
				<styleUrl>#sphere_icon</styleUrl>
				<Point>
					<altitudeMode>relativeToGround</altitudeMode>
					<coordinates>20.3833,40.3,247835.000000</coordinates>
					<extrude>1</extrude>
				</Point>
			</Placemark>
			<Placemark>
				<name>Lalari, ALBANIA: 2 hits</name>
				<styleUrl>#sphere_icon</styleUrl>
				<Point>
					<altitudeMode>relativeToGround</altitudeMode>
					<coordinates>19.6333,40.6667,247835.000000</coordinates>
					<extrude>1</extrude>
				</Point>
			</Placemark>
			<Placemark>
				<name>Shkodra, ALBANIA: 1 hits</name>
				<styleUrl>#sphere_icon</styleUrl>
				<Point>
					<altitudeMode>relativeToGround</altitudeMode>
					<coordinates>19.5131,42.0675,156367.000000</coordinates>
					<extrude>1</extrude>
				</Point>
			</Placemark>
			<Placemark>
				<name>Tirana, ALBANIA: 43 hits</name>
				<styleUrl>#sphere_icon</styleUrl>
				<Point>
					<altitudeMode>relativeToGround</altitudeMode>
					<coordinates>19.8333,41.3333,853675.000000</coordinates>
					<extrude>1</extrude>
				</Point>
			</Placemark>
			<Placemark>
				<name>Tirane, ALBANIA: 24 hits</name>
				<styleUrl>#sphere_icon</styleUrl>
				<Point>
					<altitudeMode>relativeToGround</altitudeMode>
					<coordinates>19.8667,41.3167,726146.000000</coordinates>
					<extrude>1</extrude>
				</Point>
			</Placemark>
			<Placemark>
				<name>Tiranë, ALBANIA: 79 hits</name>
				<styleUrl>#sphere_icon</styleUrl>
				<Point>
					<altitudeMode>relativeToGround</altitudeMode>
					<coordinates>19.8333,41.3333,988541.000000</coordinates>
					<extrude>1</extrude>
				</Point>
			</Placemark>
			<Placemark>
				<name>Trenë, ALBANIA: 1 hits</name>
				<styleUrl>#sphere_icon</styleUrl>
				<Point>
					<altitudeMode>relativeToGround</altitudeMode>
					<coordinates>20.4333,41.65,156367.000000</coordinates>
					<extrude>1</extrude>
				</Point>
			</Placemark>
			<Placemark>
				<name>Zherka, ALBANIA: 1 hits</name>
				<styleUrl>#sphere_icon</styleUrl>
				<Point>
					<altitudeMode>relativeToGround</altitudeMode>
					<coordinates>20.225,42.3225,156367.000000</coordinates>
					<extrude>1</extrude>
				</Point>
			</Placemark>
		</Folder>
		<Folder>
			<name>ALGERIA: 371 hits, 10 cities</name>
			<Placemark>
				<name>Alger, ALGERIA: 250 hits</name>
				<styleUrl>#sphere_icon</styleUrl>
				<Point>
					<altitudeMode>relativeToGround</altitudeMode>
					<coordinates>3.0506,36.7631,1246487.000000</coordinates>
					<extrude>1</extrude>
				</Point>
			</Placemark>
			<Placemark>
				<name>Algeria, ALGERIA: 16 hits</name>
				<styleUrl>#sphere_icon</styleUrl>
				<Point>
					<altitudeMode>relativeToGround</altitudeMode>
					<coordinates>3.0,28.0,639144.000000</coordinates>
					<extrude>1</extrude>
				</Point>
			</Placemark>
			<Placemark>
				<name>Algier, ALGERIA: 1 hits</name>
				<styleUrl>#sphere_icon</styleUrl>
				<Point>
					<altitudeMode>relativeToGround</altitudeMode>
					<coordinates>3.0506,36.7631,156367.000000</coordinates>
					<extrude>1</extrude>
				</Point>
			</Placemark>
			<Placemark>
				<name>Algiers, ALGERIA: 64 hits</name>
				<styleUrl>#sphere_icon</styleUrl>
				<Point>
					<altitudeMode>relativeToGround</altitudeMode>
					<coordinates>3.0506,36.7631,941700.000000</coordinates>
					<extrude>1</extrude>
				</Point>
			</Placemark>
			<Placemark>
				<name>Bou Ismail, ALGERIA: 9 hits</name>
				<styleUrl>#sphere_icon</styleUrl>
				<Point>
					<altitudeMode>relativeToGround</altitudeMode>
					<coordinates>2.9167,36.8,519440.000000</coordinates>
					<extrude>1</extrude>
				</Point>
			</Placemark>
			<Placemark>
				<name>Bou Ismaïl, ALGERIA: 12 hits</name>
				<styleUrl>#sphere_icon</styleUrl>
				<Point>
					<altitudeMode>relativeToGround</altitudeMode>
					<coordinates>2.6833,36.6333,578626.000000</coordinates>
					<extrude>1</extrude>
				</Point>
			</Placemark>
			<Placemark>
				<name>Cheraga, ALGERIA: 1 hits</name>
				<styleUrl>#sphere_icon</styleUrl>
				<Point>
					<altitudeMode>relativeToGround</altitudeMode>
					<coordinates>1.8167,36.4,156367.000000</coordinates>
					<extrude>1</extrude>
				</Point>
			</Placemark>
			<Placemark>
				<name>Constantine, ALGERIA: 1 hits</name>
				<styleUrl>#sphere_icon</styleUrl>
				<Point>
					<altitudeMode>relativeToGround</altitudeMode>
					<coordinates>6.6147,36.365,156367.000000</coordinates>
					<extrude>1</extrude>
				</Point>
			</Placemark>
			<Placemark>
				<name>Tizi Ouzou, ALGERIA: 13 hits</name>
				<styleUrl>#sphere_icon</styleUrl>
				<Point>
					<altitudeMode>relativeToGround</altitudeMode>
					<coordinates>4.0497,36.7169,595345.000000</coordinates>
					<extrude>1</extrude>
				</Point>
			</Placemark>
			<Placemark>
				<name>Tizi Uzu, ALGERIA: 4 hits</name>
				<styleUrl>#sphere_icon</styleUrl>
				<Point>
					<altitudeMode>relativeToGround</altitudeMode>
					<coordinates>4.0497,36.7169,363073.000000</coordinates>
					<extrude>1</extrude>
				</Point>
			</Placemark>
		</Folder>
		<Folder>
			<name>ANDORRA: 99 hits, 3 cities</name>
			<Placemark>
				<name>Andorra La Vella, ANDORRA: 6 hits</name>
				<styleUrl>#sphere_icon</styleUrl>
				<Point>
					<altitudeMode>relativeToGround</altitudeMode>
					<coordinates>1.5167,42.5,438977.000000</coordinates>
					<extrude>1</extrude>
				</Point>
			</Placemark>
			<Placemark>
				<name>Andorra, ANDORRA: 75 hits</name>
				<styleUrl>#sphere_icon</styleUrl>
				<Point>
					<altitudeMode>relativeToGround</altitudeMode>
					<coordinates>1.5167,42.5,976970.000000</coordinates>
					<extrude>1</extrude>
				</Point>
			</Placemark>
			<Placemark>
				<name>Arinsal, ANDORRA: 18 hits</name>
				<styleUrl>#sphere_icon</styleUrl>
				<Point>
					<altitudeMode>relativeToGround</altitudeMode>
					<coordinates>1.4833,42.5667,664236.000000</coordinates>
					<extrude>1</extrude>
				</Point>
			</Placemark>
		</Folder>
		<Folder>
			<name>ANGOLA: 13 hits, 3 cities</name>
			<Placemark>
				<name>Cabo Ledo, ANGOLA: 9 hits</name>
				<styleUrl>#sphere_icon</styleUrl>
				<Point>
					<altitudeMode>relativeToGround</altitudeMode>
					<coordinates>13.2333,-9.6667,519440.000000</coordinates>
					<extrude>1</extrude>
				</Point>
			</Placemark>
			<Placemark>
				<name>Luanda, ANGOLA: 3 hits</name>
				<styleUrl>#sphere_icon</styleUrl>
				<Point>
					<altitudeMode>relativeToGround</altitudeMode>
					<coordinates>14.8167,-7.05,312734.000000</coordinates>
					<extrude>1</extrude>
				</Point>
			</Placemark>
			<Placemark>
				<name>Samba, ANGOLA: 1 hits</name>
				<styleUrl>#sphere_icon</styleUrl>
				<Point>
					<altitudeMode>relativeToGround</altitudeMode>
					<coordinates>19.0667,-12.25,156367.000000</coordinates>
					<extrude>1</extrude>
				</Point>
			</Placemark>
		</Folder>
		<Folder>
			<name>ANGUILLA: 2 hits, 1 cities</name>
			<Placemark>
				<name>The Valley, ANGUILLA: 2 hits</name>
				<styleUrl>#sphere_icon</styleUrl>
				<Point>
					<altitudeMode>relativeToGround</altitudeMode>
					<coordinates>-63.05,18.2167,247835.000000</coordinates>
					<extrude>1</extrude>
				</Point>
			</Placemark>
		</Folder>
		<Folder>
			<name>ARGENTINA: 5943 hits, 51 cities</name>
			<Placemark>
				<name>Argentina, ARGENTINA: 83 hits</name>
				<styleUrl>#sphere_icon</styleUrl>
				<Point>
					<altitudeMode>relativeToGround</altitudeMode>
					<coordinates>-62.2833,-29.55,999548.000000</coordinates>
					<extrude>1</extrude>
				</Point>
			</Placemark>
			<Placemark>
				<name>Bahia Blanca, ARGENTINA: 8 hits</name>
				<styleUrl>#sphere_icon</styleUrl>
				<Point>
					<altitudeMode>relativeToGround</altitudeMode>
					<coordinates>-62.0,-38.0,495671.000000</coordinates>
					<extrude>1</extrude>
				</Point>
			</Placemark>
			<Placemark>
				<name>Bahía Blanca, ARGENTINA: 2 hits</name>
				<styleUrl>#sphere_icon</styleUrl>
				<Point>
					<altitudeMode>relativeToGround</altitudeMode>
					<coordinates>-62.2833,-38.7167,247835.000000</coordinates>
					<extrude>1</extrude>
				</Point>
			</Placemark>
			<Placemark>
				<name>Bariloche, ARGENTINA: 14 hits</name>
				<styleUrl>#sphere_icon</styleUrl>
				<Point>
					<altitudeMode>relativeToGround</altitudeMode>
					<coordinates>-62.2333,-35.5,610909.000000</coordinates>
					<extrude>1</extrude>
				</Point>
			</Placemark>
			<Placemark>
				<name>Berazategui, ARGENTINA: 133 hits</name>
				<styleUrl>#sphere_icon</styleUrl>
				<Point>
					<altitudeMode>relativeToGround</altitudeMode>
					<coordinates>-58.2167,-34.7667,1104903.000000</coordinates>
					<extrude>1</extrude>
				</Point>
			</Placemark>
			<Placemark>
				<name>Buenos Aires, ARGENTINA: 3512 hits</name>
				<styleUrl>#sphere_icon</styleUrl>
				<Point>
					<altitudeMode>relativeToGround</altitudeMode>
					<coordinates>-58.3667,-34.5833,1841767.000000</coordinates>
					<extrude>1</extrude>
				</Point>
			</Placemark>
			<Placemark>
				<name>Campana, ARGENTINA: 28 hits</name>
				<styleUrl>#sphere_icon</styleUrl>
				<Point>
					<altitudeMode>relativeToGround</altitudeMode>
					<coordinates>-58.9544,-34.1669,759628.000000</coordinates>
					<extrude>1</extrude>
				</Point>
			</Placemark>
			<Placemark>
				<name>Capital Federal, ARGENTINA: 50 hits</name>
				<styleUrl>#sphere_icon</styleUrl>
				<Point>
					<altitudeMode>relativeToGround</altitudeMode>
					<coordinates>-58.5,-34.3333,886980.000000</coordinates>
					<extrude>1</extrude>
				</Point>
			</Placemark>
			<Placemark>
				<name>Catamarca, ARGENTINA: 3 hits</name>
				<styleUrl>#sphere_icon</styleUrl>
				<Point>
					<altitudeMode>relativeToGround</altitudeMode>
					<coordinates>-65.7833,-28.4667,312734.000000</coordinates>
					<extrude>1</extrude>
				</Point>
			</Placemark>
			<Placemark>
				<name>Ceres, ARGENTINA: 32 hits</name>
				<styleUrl>#sphere_icon</styleUrl>
				<Point>
					<altitudeMode>relativeToGround</altitudeMode>
					<coordinates>-61.95,-29.8833,788777.000000</coordinates>
					<extrude>1</extrude>
				</Point>
			</Placemark>
			<Placemark>
				<name>Cipolleti, ARGENTINA: 1 hits</name>
				<styleUrl>#sphere_icon</styleUrl>
				<Point>
					<altitudeMode>relativeToGround</altitudeMode>
					<coordinates>-67.9833,-38.9333,156367.000000</coordinates>
					<extrude>1</extrude>
				</Point>
			</Placemark>
			<Placemark>
				<name>Corrientes, ARGENTINA: 31 hits</name>
				<styleUrl>#sphere_icon</styleUrl>
				<Point>
					<altitudeMode>relativeToGround</altitudeMode>
					<coordinates>-58.8333,-27.4667,781835.000000</coordinates>
					<extrude>1</extrude>
				</Point>
			</Placemark>
			<Placemark>
				<name>Córdoba, ARGENTINA: 357 hits</name>
				<styleUrl>#sphere_icon</styleUrl>
				<Point>
					<altitudeMode>relativeToGround</altitudeMode>
					<coordinates>-64.1833,-31.4,1326589.000000</coordinates>
					<extrude>1</extrude>
				</Point>
			</Placemark>
			<Placemark>
				<name>El Cimarrón, ARGENTINA: 10 hits</name>
				<styleUrl>#sphere_icon</styleUrl>
				<Point>
					<altitudeMode>relativeToGround</altitudeMode>
					<coordinates>-67.6833,-28.7833,540941.000000</coordinates>
					<extrude>1</extrude>
				</Point>
			</Placemark>
			<Placemark>
				<name>Esperanza, ARGENTINA: 1 hits</name>
				<styleUrl>#sphere_icon</styleUrl>
				<Point>
					<altitudeMode>relativeToGround</altitudeMode>
					<coordinates>-54.65,-26.0167,156367.000000</coordinates>
					<extrude>1</extrude>
				</Point>
			</Placemark>
			<Placemark>
				<name>Ezeiza, ARGENTINA: 89 hits</name>
				<styleUrl>#sphere_icon</styleUrl>
				<Point>
					<altitudeMode>relativeToGround</altitudeMode>
					<coordinates>-58.5333,-34.85,1015112.000000</coordinates>
					<extrude>1</extrude>
				</Point>
			</Placemark>
			<Placemark>
				<name>Federal, ARGENTINA: 13 hits</name>
				<styleUrl>#sphere_icon</styleUrl>
				<Point>
					<altitudeMode>relativeToGround</altitudeMode>
					<coordinates>-58.8,-30.95,595345.000000</coordinates>
					<extrude>1</extrude>
				</Point>
			</Placemark>
			<Placemark>
				<name>Garín, ARGENTINA: 1 hits</name>
				<styleUrl>#sphere_icon</styleUrl>
				<Point>
					<altitudeMode>relativeToGround</altitudeMode>
					<coordinates>-58.7333,-34.4333,156367.000000</coordinates>
					<extrude>1</extrude>
				</Point>
			</Placemark>
			<Placemark>
				<name>General Roca, ARGENTINA: 1 hits</name>
				<styleUrl>#sphere_icon</styleUrl>
				<Point>
					<altitudeMode>relativeToGround</altitudeMode>
					<coordinates>-66.4667,-32.65,156367.000000</coordinates>
					<extrude>1</extrude>
				</Point>
			</Placemark>
			<Placemark>
				<name>González Catán, ARGENTINA: 5 hits</name>
				<styleUrl>#sphere_icon</styleUrl>
				<Point>
					<altitudeMode>relativeToGround</altitudeMode>
					<coordinates>-58.6428,-34.7675,404203.000000</coordinates>
					<extrude>1</extrude>
				</Point>
			</Placemark>
			<Placemark>
				<name>Granadero Baigorria, ARGENTINA: 3 hits</name>
				<styleUrl>#sphere_icon</styleUrl>
				<Point>
					<altitudeMode>relativeToGround</altitudeMode>
					<coordinates>-60.6833,-32.8667,312734.000000</coordinates>
					<extrude>1</extrude>
				</Point>
			</Placemark>
			<Placemark>
				<name>Gualeguay, ARGENTINA: 12 hits</name>
				<styleUrl>#sphere_icon</styleUrl>
				<Point>
					<altitudeMode>relativeToGround</altitudeMode>
					<coordinates>-59.3292,-33.1444,578626.000000</coordinates>
					<extrude>1</extrude>
				</Point>
			</Placemark>
			<Placemark>
				<name>Hurlingham, ARGENTINA: 9 hits</name>
				<styleUrl>#sphere_icon</styleUrl>
				<Point>
					<altitudeMode>relativeToGround</altitudeMode>
					<coordinates>-58.6333,-34.6,519440.000000</coordinates>
					<extrude>1</extrude>
				</Point>
			</Placemark>
			<Placemark>
				<name>La Plata, ARGENTINA: 37 hits</name>
				<styleUrl>#sphere_icon</styleUrl>
				<Point>
					<altitudeMode>relativeToGround</altitudeMode>
					<coordinates>-57.9489,-34.9314,820603.000000</coordinates>
					<extrude>1</extrude>
				</Point>
			</Placemark>
			<Placemark>
				<name>Mangrullo, ARGENTINA: 2 hits</name>
				<styleUrl>#sphere_icon</styleUrl>
				<Point>
					<altitudeMode>relativeToGround</altitudeMode>
					<coordinates>-65.0167,-28.1,247835.000000</coordinates>
					<extrude>1</extrude>
				</Point>
			</Placemark>
			<Placemark>
				<name>Mar Del Plata, ARGENTINA: 971 hits</name>
				<styleUrl>#sphere_icon</styleUrl>
				<Point>
					<altitudeMode>relativeToGround</altitudeMode>
					<coordinates>-57.5667,-37.9333,1551914.000000</coordinates>
					<extrude>1</extrude>
				</Point>
			</Placemark>
			<Placemark>
				<name>Mendoza, ARGENTINA: 11 hits</name>
				<styleUrl>#sphere_icon</styleUrl>
				<Point>
					<altitudeMode>relativeToGround</altitudeMode>
					<coordinates>-68.8167,-32.8833,560570.000000</coordinates>
					<extrude>1</extrude>
				</Point>
			</Placemark>
			<Placemark>
				<name>Moreno, ARGENTINA: 5 hits</name>
				<styleUrl>#sphere_icon</styleUrl>
				<Point>
					<altitudeMode>relativeToGround</altitudeMode>
					<coordinates>-65.8,-23.8667,404203.000000</coordinates>
					<extrude>1</extrude>
				</Point>
			</Placemark>
			<Placemark>
				<name>Muñiz, ARGENTINA: 3 hits</name>
				<styleUrl>#sphere_icon</styleUrl>
				<Point>
					<altitudeMode>relativeToGround</altitudeMode>
					<coordinates>-58.7,-34.55,312734.000000</coordinates>
					<extrude>1</extrude>
				</Point>
			</Placemark>
			<Placemark>
				<name>Neuquén, ARGENTINA: 8 hits</name>
				<styleUrl>#sphere_icon</styleUrl>
				<Point>
					<altitudeMode>relativeToGround</altitudeMode>
					<coordinates>-68.0667,-38.95,495671.000000</coordinates>
					<extrude>1</extrude>
				</Point>
			</Placemark>
			<Placemark>
				<name>Parana, ARGENTINA: 3 hits</name>
				<styleUrl>#sphere_icon</styleUrl>
				<Point>
					<altitudeMode>relativeToGround</altitudeMode>
					<coordinates>-60.3667,-31.7667,312734.000000</coordinates>
					<extrude>1</extrude>
				</Point>
			</Placemark>
			<Placemark>
				<name>Paraná, ARGENTINA: 37 hits</name>
				<styleUrl>#sphere_icon</styleUrl>
				<Point>
					<altitudeMode>relativeToGround</altitudeMode>
					<coordinates>-64.4667,-27.0833,820603.000000</coordinates>
					<extrude>1</extrude>
				</Point>
			</Placemark>
			<Placemark>
				<name>Pehuajó, ARGENTINA: 2 hits</name>
				<styleUrl>#sphere_icon</styleUrl>
				<Point>
					<altitudeMode>relativeToGround</altitudeMode>
					<coordinates>-61.9053,-35.8147,247835.000000</coordinates>
					<extrude>1</extrude>
				</Point>
			</Placemark>
			<Placemark>
				<name>Pergamino, ARGENTINA: 11 hits</name>
				<styleUrl>#sphere_icon</styleUrl>
				<Point>
					<altitudeMode>relativeToGround</altitudeMode>
					<coordinates>-60.5725,-33.8925,560570.000000</coordinates>
					<extrude>1</extrude>
				</Point>
			</Placemark>
			<Placemark>
				<name>Punta Alta, ARGENTINA: 8 hits</name>
				<styleUrl>#sphere_icon</styleUrl>
				<Point>
					<altitudeMode>relativeToGround</altitudeMode>
					<coordinates>-62.0833,-38.8333,495671.000000</coordinates>
					<extrude>1</extrude>
				</Point>
			</Placemark>
			<Placemark>
				<name>Rio Cuarto, ARGENTINA: 4 hits</name>
				<styleUrl>#sphere_icon</styleUrl>
				<Point>
					<altitudeMode>relativeToGround</altitudeMode>
					<coordinates>-64.2667,-33.0833,363073.000000</coordinates>
					<extrude>1</extrude>
				</Point>
			</Placemark>
			<Placemark>
				<name>Rosario, ARGENTINA: 58 hits</name>
				<styleUrl>#sphere_icon</styleUrl>
				<Point>
					<altitudeMode>relativeToGround</altitudeMode>
					<coordinates>-66.7167,-22.85,919851.000000</coordinates>
					<extrude>1</extrude>
				</Point>
			</Placemark>
			<Placemark>
				<name>Salta, ARGENTINA: 48 hits</name>
				<styleUrl>#sphere_icon</styleUrl>
				<Point>
					<altitudeMode>relativeToGround</altitudeMode>
					<coordinates>-65.4167,-24.7833,877955.000000</coordinates>
					<extrude>1</extrude>
				</Point>
			</Placemark>
			<Placemark>
				<name>San Carlos de Bariloche, ARGENTINA: 50 hits</name>
				<styleUrl>#sphere_icon</styleUrl>
				<Point>
					<altitudeMode>relativeToGround</altitudeMode>
					<coordinates>-71.3,-41.15,886980.000000</coordinates>
					<extrude>1</extrude>
				</Point>
			</Placemark>
			<Placemark>
				<name>San Miguel de Tucumán, ARGENTINA: 14 hits</name>
				<styleUrl>#sphere_icon</styleUrl>
				<Point>
					<altitudeMode>relativeToGround</altitudeMode>
					<coordinates>-65.2167,-26.8167,610909.000000</coordinates>
					<extrude>1</extrude>
				</Point>
			</Placemark>
			<Placemark>
				<name>San Rafael, ARGENTINA: 9 hits</name>
				<styleUrl>#sphere_icon</styleUrl>
				<Point>
					<altitudeMode>relativeToGround</altitudeMode>
					<coordinates>-64.4,-24.1167,519440.000000</coordinates>
					<extrude>1</extrude>
				</Point>
			</Placemark>
			<Placemark>
				<name>San Salvador de Jujuy, ARGENTINA: 26 hits</name>
				<styleUrl>#sphere_icon</styleUrl>
				<Point>
					<altitudeMode>relativeToGround</altitudeMode>
					<coordinates>-65.3,-24.1833,743507.000000</coordinates>
					<extrude>1</extrude>
				</Point>
			</Placemark>
			<Placemark>
				<name>Santa Fe, ARGENTINA: 22 hits</name>
				<styleUrl>#sphere_icon</styleUrl>
				<Point>
					<altitudeMode>relativeToGround</altitudeMode>
					<coordinates>-60.7,-31.6333,707336.000000</coordinates>
					<extrude>1</extrude>
				</Point>
			</Placemark>
			<Placemark>
				<name>Santiago del Estero, ARGENTINA: 2 hits</name>
				<styleUrl>#sphere_icon</styleUrl>
				<Point>
					<altitudeMode>relativeToGround</altitudeMode>
					<coordinates>-64.2667,-27.7833,247835.000000</coordinates>
					<extrude>1</extrude>
				</Point>
			</Placemark>
			<Placemark>
				<name>Tigre, ARGENTINA: 2 hits</name>
				<styleUrl>#sphere_icon</styleUrl>
				<Point>
					<altitudeMode>relativeToGround</altitudeMode>
					<coordinates>-58.5667,-34.4167,247835.000000</coordinates>
					<extrude>1</extrude>
				</Point>
			</Placemark>
			<Placemark>
				<name>Trelew, ARGENTINA: 2 hits</name>
				<styleUrl>#sphere_icon</styleUrl>
				<Point>
					<altitudeMode>relativeToGround</altitudeMode>
					<coordinates>-65.3,-43.25,247835.000000</coordinates>
					<extrude>1</extrude>
				</Point>
			</Placemark>
			<Placemark>
				<name>Tucumán, ARGENTINA: 202 hits</name>
				<styleUrl>#sphere_icon</styleUrl>
				<Point>
					<altitudeMode>relativeToGround</altitudeMode>
					<coordinates>-65.2167,-26.8167,1198606.000000</coordinates>
					<extrude>1</extrude>
				</Point>
			</Placemark>
			<Placemark>
				<name>USHUAIA, ARGENTINA: 2 hits</name>
				<styleUrl>#sphere_icon</styleUrl>
				<Point>
					<altitudeMode>relativeToGround</altitudeMode>
					<coordinates>-68.3,-54.8,247835.000000</coordinates>
					<extrude>1</extrude>
				</Point>
			</Placemark>
			<Placemark>
				<name>Villa Gesell, ARGENTINA: 4 hits</name>
				<styleUrl>#sphere_icon</styleUrl>
				<Point>
					<altitudeMode>relativeToGround</altitudeMode>
					<coordinates>-56.9167,-37.25,363073.000000</coordinates>
					<extrude>1</extrude>
				</Point>
			</Placemark>
			<Placemark>
				<name>Yerba Buena, ARGENTINA: 1 hits</name>
				<styleUrl>#sphere_icon</styleUrl>
				<Point>
					<altitudeMode>relativeToGround</altitudeMode>
					<coordinates>-65.3167,-26.8167,156367.000000</coordinates>
					<extrude>1</extrude>
				</Point>
			</Placemark>
			<Placemark>
				<name>Zárate, ARGENTINA: 1 hits</name>
				<styleUrl>#sphere_icon</styleUrl>
				<Point>
					<altitudeMode>relativeToGround</altitudeMode>
					<coordinates>-65.4,-26.2167,156367.000000</coordinates>
					<extrude>1</extrude>
				</Point>
			</Placemark>
		</Folder>
		<Folder>
			<name>ARMENIA: 11 hits, 1 cities</name>
			<Placemark>
				<name>Yerevan, ARMENIA: 11 hits</name>
				<styleUrl>#sphere_icon</styleUrl>
				<Point>
					<altitudeMode>relativeToGround</altitudeMode>
					<coordinates>44.4647,40.1256,560570.000000</coordinates>
					<extrude>1</extrude>
				</Point>
			</Placemark>
		</Folder>
		<Folder>
			<name>AUSTRALIA: 17003 hits, 222 cities</name>
			<Placemark>
				<name>Adelaide, AUSTRALIA: 905 hits</name>
				<styleUrl>#sphere_icon</styleUrl>
				<Point>
					<altitudeMode>relativeToGround</altitudeMode>
					<coordinates>138.6,-34.9167,1536051.000000</coordinates>
					<extrude>1</extrude>
				</Point>
			</Placemark>
			<Placemark>
				<name>Albany, AUSTRALIA: 28 hits</name>
				<styleUrl>#sphere_icon</styleUrl>
				<Point>
					<altitudeMode>relativeToGround</altitudeMode>
					<coordinates>117.883,-35.0333,759628.000000</coordinates>
					<extrude>1</extrude>
				</Point>
			</Placemark>
			<Placemark>
				<name>Albury, AUSTRALIA: 12 hits</name>
				<styleUrl>#sphere_icon</styleUrl>
				<Point>
					<altitudeMode>relativeToGround</altitudeMode>
					<coordinates>146.917,-36.0833,578626.000000</coordinates>
					<extrude>1</extrude>
				</Point>
			</Placemark>
			<Placemark>
				<name>Alice Springs, AUSTRALIA: 12 hits</name>
				<styleUrl>#sphere_icon</styleUrl>
				<Point>
					<altitudeMode>relativeToGround</altitudeMode>
					<coordinates>133.883,-23.7,578626.000000</coordinates>
					<extrude>1</extrude>
				</Point>
			</Placemark>
			<Placemark>
				<name>Applecross, AUSTRALIA: 39 hits</name>
				<styleUrl>#sphere_icon</styleUrl>
				<Point>
					<altitudeMode>relativeToGround</altitudeMode>
					<coordinates>115.833,-32.0167,832174.000000</coordinates>
					<extrude>1</extrude>
				</Point>
			</Placemark>
			<Placemark>
				<name>Armadale, AUSTRALIA: 5 hits</name>
				<styleUrl>#sphere_icon</styleUrl>
				<Point>
					<altitudeMode>relativeToGround</altitudeMode>
					<coordinates>116.0,-32.15,404203.000000</coordinates>
					<extrude>1</extrude>
				</Point>
			</Placemark>
			<Placemark>
				<name>Armidale, AUSTRALIA: 13 hits</name>
				<styleUrl>#sphere_icon</styleUrl>
				<Point>
					<altitudeMode>relativeToGround</altitudeMode>
					<coordinates>151.65,-30.5167,595345.000000</coordinates>
					<extrude>1</extrude>
				</Point>
			</Placemark>
			<Placemark>
				<name>Ashfield, AUSTRALIA: 8 hits</name>
				<styleUrl>#sphere_icon</styleUrl>
				<Point>
					<altitudeMode>relativeToGround</altitudeMode>
					<coordinates>151.117,-33.8833,495671.000000</coordinates>
					<extrude>1</extrude>
				</Point>
			</Placemark>
			<Placemark>
				<name>Aspley, AUSTRALIA: 1 hits</name>
				<styleUrl>#sphere_icon</styleUrl>
				<Point>
					<altitudeMode>relativeToGround</altitudeMode>
					<coordinates>153.017,-27.3667,156367.000000</coordinates>
					<extrude>1</extrude>
				</Point>
			</Placemark>
			<Placemark>
				<name>Atherton, AUSTRALIA: 2 hits</name>
				<styleUrl>#sphere_icon</styleUrl>
				<Point>
					<altitudeMode>relativeToGround</altitudeMode>
					<coordinates>145.483,-17.2667,247835.000000</coordinates>
					<extrude>1</extrude>
				</Point>
			</Placemark>
			<Placemark>
				<name>Balgownie, AUSTRALIA: 1 hits</name>
				<styleUrl>#sphere_icon</styleUrl>
				<Point>
					<altitudeMode>relativeToGround</altitudeMode>
					<coordinates>150.9,-34.4,156367.000000</coordinates>
					<extrude>1</extrude>
				</Point>
			</Placemark>
			<Placemark>
				<name>Ballarat, AUSTRALIA: 21 hits</name>
				<styleUrl>#sphere_icon</styleUrl>
				<Point>
					<altitudeMode>relativeToGround</altitudeMode>
					<coordinates>143.867,-37.5667,697308.000000</coordinates>
					<extrude>1</extrude>
				</Point>
			</Placemark>
			<Placemark>
				<name>Ballina, AUSTRALIA: 2 hits</name>
				<styleUrl>#sphere_icon</styleUrl>
				<Point>
					<altitudeMode>relativeToGround</altitudeMode>
					<coordinates>153.567,-28.8667,247835.000000</coordinates>
					<extrude>1</extrude>
				</Point>
			</Placemark>
			<Placemark>
				<name>Barrington, AUSTRALIA: 2 hits</name>
				<styleUrl>#sphere_icon</styleUrl>
				<Point>
					<altitudeMode>relativeToGround</altitudeMode>
					<coordinates>151.9,-31.9667,247835.000000</coordinates>
					<extrude>1</extrude>
				</Point>
			</Placemark>
			<Placemark>
				<name>Batemans Bay, AUSTRALIA: 2 hits</name>
				<styleUrl>#sphere_icon</styleUrl>
				<Point>
					<altitudeMode>relativeToGround</altitudeMode>
					<coordinates>150.183,-35.7167,247835.000000</coordinates>
					<extrude>1</extrude>
				</Point>
			</Placemark>
			<Placemark>
				<name>Bathurst, AUSTRALIA: 8 hits</name>
				<styleUrl>#sphere_icon</styleUrl>
				<Point>
					<altitudeMode>relativeToGround</altitudeMode>
					<coordinates>149.567,-33.4167,495671.000000</coordinates>
					<extrude>1</extrude>
				</Point>
			</Placemark>
			<Placemark>
				<name>Baulkham Hills, AUSTRALIA: 2 hits</name>
				<styleUrl>#sphere_icon</styleUrl>
				<Point>
					<altitudeMode>relativeToGround</altitudeMode>
					<coordinates>151.0,-33.75,247835.000000</coordinates>
					<extrude>1</extrude>
				</Point>
			</Placemark>
			<Placemark>
				<name>Beerwah, AUSTRALIA: 3 hits</name>
				<styleUrl>#sphere_icon</styleUrl>
				<Point>
					<altitudeMode>relativeToGround</altitudeMode>
					<coordinates>152.967,-26.85,312734.000000</coordinates>
					<extrude>1</extrude>
				</Point>
			</Placemark>
			<Placemark>
				<name>Bellambi, AUSTRALIA: 1 hits</name>
				<styleUrl>#sphere_icon</styleUrl>
				<Point>
					<altitudeMode>relativeToGround</altitudeMode>
					<coordinates>150.917,-34.3667,156367.000000</coordinates>
					<extrude>1</extrude>
				</Point>
			</Placemark>
			<Placemark>
				<name>Belmont, AUSTRALIA: 6 hits</name>
				<styleUrl>#sphere_icon</styleUrl>
				<Point>
					<altitudeMode>relativeToGround</altitudeMode>
					<coordinates>153.117,-27.5,438977.000000</coordinates>
					<extrude>1</extrude>
				</Point>
			</Placemark>
			<Placemark>
				<name>Belrose, AUSTRALIA: 83 hits</name>
				<styleUrl>#sphere_icon</styleUrl>
				<Point>
					<altitudeMode>relativeToGround</altitudeMode>
					<coordinates>151.217,-33.7333,999548.000000</coordinates>
					<extrude>1</extrude>
				</Point>
			</Placemark>
			<Placemark>
				<name>Bendemeer, AUSTRALIA: 2 hits</name>
				<styleUrl>#sphere_icon</styleUrl>
				<Point>
					<altitudeMode>relativeToGround</altitudeMode>
					<coordinates>151.167,-30.8833,247835.000000</coordinates>
					<extrude>1</extrude>
				</Point>
			</Placemark>
			<Placemark>
				<name>Bendigo, AUSTRALIA: 37 hits</name>
				<styleUrl>#sphere_icon</styleUrl>
				<Point>
					<altitudeMode>relativeToGround</altitudeMode>
					<coordinates>144.267,-36.7667,820603.000000</coordinates>
					<extrude>1</extrude>
				</Point>
			</Placemark>
			<Placemark>
				<name>Berowra, AUSTRALIA: 1 hits</name>
				<styleUrl>#sphere_icon</styleUrl>
				<Point>
					<altitudeMode>relativeToGround</altitudeMode>
					<coordinates>151.15,-33.6333,156367.000000</coordinates>
					<extrude>1</extrude>
				</Point>
			</Placemark>
			<Placemark>
				<name>Blackburn, AUSTRALIA: 3 hits</name>
				<styleUrl>#sphere_icon</styleUrl>
				<Point>
					<altitudeMode>relativeToGround</altitudeMode>
					<coordinates>145.167,-37.8167,312734.000000</coordinates>
					<extrude>1</extrude>
				</Point>
			</Placemark>
			<Placemark>
				<name>Blacktown, AUSTRALIA: 9 hits</name>
				<styleUrl>#sphere_icon</styleUrl>
				<Point>
					<altitudeMode>relativeToGround</altitudeMode>
					<coordinates>150.917,-33.7667,519440.000000</coordinates>
					<extrude>1</extrude>
				</Point>
			</Placemark>
			<Placemark>
				<name>Blue Mountains, AUSTRALIA: 7 hits</name>
				<styleUrl>#sphere_icon</styleUrl>
				<Point>
					<altitudeMode>relativeToGround</altitudeMode>
					<coordinates>143.25,-13.5333,469101.000000</coordinates>
					<extrude>1</extrude>
				</Point>
			</Placemark>
			<Placemark>
				<name>Bowral, AUSTRALIA: 7 hits</name>
				<styleUrl>#sphere_icon</styleUrl>
				<Point>
					<altitudeMode>relativeToGround</altitudeMode>
					<coordinates>150.417,-34.4667,469101.000000</coordinates>
					<extrude>1</extrude>
				</Point>
			</Placemark>
			<Placemark>
				<name>Box Hill, AUSTRALIA: 24 hits</name>
				<styleUrl>#sphere_icon</styleUrl>
				<Point>
					<altitudeMode>relativeToGround</altitudeMode>
					<coordinates>145.133,-37.8167,726146.000000</coordinates>
					<extrude>1</extrude>
				</Point>
			</Placemark>
			<Placemark>
				<name>Boyup Brook, AUSTRALIA: 2 hits</name>
				<styleUrl>#sphere_icon</styleUrl>
				<Point>
					<altitudeMode>relativeToGround</altitudeMode>
					<coordinates>116.4,-33.8333,247835.000000</coordinates>
					<extrude>1</extrude>
				</Point>
			</Placemark>
			<Placemark>
				<name>Brighton, AUSTRALIA: 2 hits</name>
				<styleUrl>#sphere_icon</styleUrl>
				<Point>
					<altitudeMode>relativeToGround</altitudeMode>
					<coordinates>153.067,-27.3,247835.000000</coordinates>
					<extrude>1</extrude>
				</Point>
			</Placemark>
			<Placemark>
				<name>Brisbane, AUSTRALIA: 1254 hits</name>
				<styleUrl>#sphere_icon</styleUrl>
				<Point>
					<altitudeMode>relativeToGround</altitudeMode>
					<coordinates>153.133,-27.4833,1609560.000000</coordinates>
					<extrude>1</extrude>
				</Point>
			</Placemark>
			<Placemark>
				<name>Brooklyn, AUSTRALIA: 7 hits</name>
				<styleUrl>#sphere_icon</styleUrl>
				<Point>
					<altitudeMode>relativeToGround</altitudeMode>
					<coordinates>151.233,-33.55,469101.000000</coordinates>
					<extrude>1</extrude>
				</Point>
			</Placemark>
			<Placemark>
				<name>Broome, AUSTRALIA: 144 hits</name>
				<styleUrl>#sphere_icon</styleUrl>
				<Point>
					<altitudeMode>relativeToGround</altitudeMode>
					<coordinates>122.233,-17.9667,1122701.000000</coordinates>
					<extrude>1</extrude>
				</Point>
			</Placemark>
			<Placemark>
				<name>Brunswick, AUSTRALIA: 2 hits</name>
				<styleUrl>#sphere_icon</styleUrl>
				<Point>
					<altitudeMode>relativeToGround</altitudeMode>
					<coordinates>153.55,-28.55,247835.000000</coordinates>
					<extrude>1</extrude>
				</Point>
			</Placemark>
			<Placemark>
				<name>Bunbury, AUSTRALIA: 22 hits</name>
				<styleUrl>#sphere_icon</styleUrl>
				<Point>
					<altitudeMode>relativeToGround</altitudeMode>
					<coordinates>115.633,-33.3333,707336.000000</coordinates>
					<extrude>1</extrude>
				</Point>
			</Placemark>
			<Placemark>
				<name>Bundaberg, AUSTRALIA: 7 hits</name>
				<styleUrl>#sphere_icon</styleUrl>
				<Point>
					<altitudeMode>relativeToGround</altitudeMode>
					<coordinates>152.35,-24.8667,469101.000000</coordinates>
					<extrude>1</extrude>
				</Point>
			</Placemark>
			<Placemark>
				<name>Bundoora, AUSTRALIA: 2 hits</name>
				<styleUrl>#sphere_icon</styleUrl>
				<Point>
					<altitudeMode>relativeToGround</altitudeMode>
					<coordinates>145.045,-37.7164,247835.000000</coordinates>
					<extrude>1</extrude>
				</Point>
			</Placemark>
			<Placemark>
				<name>Burnie, AUSTRALIA: 4 hits</name>
				<styleUrl>#sphere_icon</styleUrl>
				<Point>
					<altitudeMode>relativeToGround</altitudeMode>
					<coordinates>145.917,-41.0667,363073.000000</coordinates>
					<extrude>1</extrude>
				</Point>
			</Placemark>
			<Placemark>
				<name>Busselton, AUSTRALIA: 2 hits</name>
				<styleUrl>#sphere_icon</styleUrl>
				<Point>
					<altitudeMode>relativeToGround</altitudeMode>
					<coordinates>115.333,-33.65,247835.000000</coordinates>
					<extrude>1</extrude>
				</Point>
			</Placemark>
			<Placemark>
				<name>Byron Bay, AUSTRALIA: 17 hits</name>
				<styleUrl>#sphere_icon</styleUrl>
				<Point>
					<altitudeMode>relativeToGround</altitudeMode>
					<coordinates>153.617,-28.65,652039.000000</coordinates>
					<extrude>1</extrude>
				</Point>
			</Placemark>
			<Placemark>
				<name>Caboolture, AUSTRALIA: 4 hits</name>
				<styleUrl>#sphere_icon</styleUrl>
				<Point>
					<altitudeMode>relativeToGround</altitudeMode>
					<coordinates>152.95,-27.0833,363073.000000</coordinates>
					<extrude>1</extrude>
				</Point>
			</Placemark>
			<Placemark>
				<name>Cairns, AUSTRALIA: 473 hits</name>
				<styleUrl>#sphere_icon</styleUrl>
				<Point>
					<altitudeMode>relativeToGround</altitudeMode>
					<coordinates>145.767,-16.9167,1389906.000000</coordinates>
					<extrude>1</extrude>
				</Point>
			</Placemark>
			<Placemark>
				<name>Camberwell, AUSTRALIA: 11 hits</name>
				<styleUrl>#sphere_icon</styleUrl>
				<Point>
					<altitudeMode>relativeToGround</altitudeMode>
					<coordinates>151.083,-32.4833,560570.000000</coordinates>
					<extrude>1</extrude>
				</Point>
			</Placemark>
			<Placemark>
				<name>Campbelltown, AUSTRALIA: 99 hits</name>
				<styleUrl>#sphere_icon</styleUrl>
				<Point>
					<altitudeMode>relativeToGround</altitudeMode>
					<coordinates>150.817,-34.0667,1038880.000000</coordinates>
					<extrude>1</extrude>
				</Point>
			</Placemark>
			<Placemark>
				<name>Canberra, AUSTRALIA: 459 hits</name>
				<styleUrl>#sphere_icon</styleUrl>
				<Point>
					<altitudeMode>relativeToGround</altitudeMode>
					<coordinates>149.133,-35.2833,1383143.000000</coordinates>
					<extrude>1</extrude>
				</Point>
			</Placemark>
			<Placemark>
				<name>Cannington, AUSTRALIA: 33 hits</name>
				<styleUrl>#sphere_icon</styleUrl>
				<Point>
					<altitudeMode>relativeToGround</altitudeMode>
					<coordinates>115.95,-32.0167,795511.000000</coordinates>
					<extrude>1</extrude>
				</Point>
			</Placemark>
			<Placemark>
				<name>Canowindra, AUSTRALIA: 3 hits</name>
				<styleUrl>#sphere_icon</styleUrl>
				<Point>
					<altitudeMode>relativeToGround</altitudeMode>
					<coordinates>148.667,-33.5667,312734.000000</coordinates>
					<extrude>1</extrude>
				</Point>
			</Placemark>
			<Placemark>
				<name>Capalaba, AUSTRALIA: 22 hits</name>
				<styleUrl>#sphere_icon</styleUrl>
				<Point>
					<altitudeMode>relativeToGround</altitudeMode>
					<coordinates>153.183,-27.5167,707336.000000</coordinates>
					<extrude>1</extrude>
				</Point>
			</Placemark>
			<Placemark>
				<name>Cape Barren Island, AUSTRALIA: 1 hits</name>
				<styleUrl>#sphere_icon</styleUrl>
				<Point>
					<altitudeMode>relativeToGround</altitudeMode>
					<coordinates>148.017,-40.3833,156367.000000</coordinates>
					<extrude>1</extrude>
				</Point>
			</Placemark>
			<Placemark>
				<name>Captains Flat, AUSTRALIA: 98 hits</name>
				<styleUrl>#sphere_icon</styleUrl>
				<Point>
					<altitudeMode>relativeToGround</altitudeMode>
					<coordinates>149.433,-35.5833,1036613.000000</coordinates>
					<extrude>1</extrude>
				</Point>
			</Placemark>
			<Placemark>
				<name>Carlingford, AUSTRALIA: 2 hits</name>
				<styleUrl>#sphere_icon</styleUrl>
				<Point>
					<altitudeMode>relativeToGround</altitudeMode>
					<coordinates>151.05,-33.7833,247835.000000</coordinates>
					<extrude>1</extrude>
				</Point>
			</Placemark>
			<Placemark>
				<name>Casino, AUSTRALIA: 3 hits</name>
				<styleUrl>#sphere_icon</styleUrl>
				<Point>
					<altitudeMode>relativeToGround</altitudeMode>
					<coordinates>153.05,-28.8667,312734.000000</coordinates>
					<extrude>1</extrude>
				</Point>
			</Placemark>
			<Placemark>
				<name>Caulfield, AUSTRALIA: 1 hits</name>
				<styleUrl>#sphere_icon</styleUrl>
				<Point>
					<altitudeMode>relativeToGround</altitudeMode>
					<coordinates>145.017,-37.8833,156367.000000</coordinates>
					<extrude>1</extrude>
				</Point>
			</Placemark>
			<Placemark>
				<name>Coffs Harbour, AUSTRALIA: 6 hits</name>
				<styleUrl>#sphere_icon</styleUrl>
				<Point>
					<altitudeMode>relativeToGround</altitudeMode>
					<coordinates>153.133,-30.3,438977.000000</coordinates>
					<extrude>1</extrude>
				</Point>
			</Placemark>
			<Placemark>
				<name>Collingwood, AUSTRALIA: 1 hits</name>
				<styleUrl>#sphere_icon</styleUrl>
				<Point>
					<altitudeMode>relativeToGround</altitudeMode>
					<coordinates>144.983,-37.8,156367.000000</coordinates>
					<extrude>1</extrude>
				</Point>
			</Placemark>
			<Placemark>
				<name>Condobolin, AUSTRALIA: 1 hits</name>
				<styleUrl>#sphere_icon</styleUrl>
				<Point>
					<altitudeMode>relativeToGround</altitudeMode>
					<coordinates>147.15,-33.0833,156367.000000</coordinates>
					<extrude>1</extrude>
				</Point>
			</Placemark>
			<Placemark>
				<name>Cone Island, AUSTRALIA: 2 hits</name>
				<styleUrl>#sphere_icon</styleUrl>
				<Point>
					<altitudeMode>relativeToGround</altitudeMode>
					<coordinates>146.65,-39.5,247835.000000</coordinates>
					<extrude>1</extrude>
				</Point>
			</Placemark>
			<Placemark>
				<name>Coolangatta, AUSTRALIA: 285 hits</name>
				<styleUrl>#sphere_icon</styleUrl>
				<Point>
					<altitudeMode>relativeToGround</altitudeMode>
					<coordinates>153.533,-28.1667,1275935.000000</coordinates>
					<extrude>1</extrude>
				</Point>
			</Placemark>
			<Placemark>
				<name>Cooranbong, AUSTRALIA: 1 hits</name>
				<styleUrl>#sphere_icon</styleUrl>
				<Point>
					<altitudeMode>relativeToGround</altitudeMode>
					<coordinates>151.433,-33.0833,156367.000000</coordinates>
					<extrude>1</extrude>
				</Point>
			</Placemark>
			<Placemark>
				<name>Corop, AUSTRALIA: 7 hits</name>
				<styleUrl>#sphere_icon</styleUrl>
				<Point>
					<altitudeMode>relativeToGround</altitudeMode>
					<coordinates>144.8,-36.4667,469101.000000</coordinates>
					<extrude>1</extrude>
				</Point>
			</Placemark>
			<Placemark>
				<name>Cremorne, AUSTRALIA: 2 hits</name>
				<styleUrl>#sphere_icon</styleUrl>
				<Point>
					<altitudeMode>relativeToGround</altitudeMode>
					<coordinates>149.2,-21.1333,247835.000000</coordinates>
					<extrude>1</extrude>
				</Point>
			</Placemark>
			<Placemark>
				<name>Cronulla, AUSTRALIA: 2 hits</name>
				<styleUrl>#sphere_icon</styleUrl>
				<Point>
					<altitudeMode>relativeToGround</altitudeMode>
					<coordinates>151.15,-34.05,247835.000000</coordinates>
					<extrude>1</extrude>
				</Point>
			</Placemark>
			<Placemark>
				<name>Croydon, AUSTRALIA: 11 hits</name>
				<styleUrl>#sphere_icon</styleUrl>
				<Point>
					<altitudeMode>relativeToGround</altitudeMode>
					<coordinates>142.233,-18.2167,560570.000000</coordinates>
					<extrude>1</extrude>
				</Point>
			</Placemark>
			<Placemark>
				<name>Crystal Creek, AUSTRALIA: 14 hits</name>
				<styleUrl>#sphere_icon</styleUrl>
				<Point>
					<altitudeMode>relativeToGround</altitudeMode>
					<coordinates>153.333,-28.3167,610909.000000</coordinates>
					<extrude>1</extrude>
				</Point>
			</Placemark>
			<Placemark>
				<name>Dandenong, AUSTRALIA: 2 hits</name>
				<styleUrl>#sphere_icon</styleUrl>
				<Point>
					<altitudeMode>relativeToGround</altitudeMode>
					<coordinates>145.2,-37.9833,247835.000000</coordinates>
					<extrude>1</extrude>
				</Point>
			</Placemark>
			<Placemark>
				<name>Darwin, AUSTRALIA: 74 hits</name>
				<styleUrl>#sphere_icon</styleUrl>
				<Point>
					<altitudeMode>relativeToGround</altitudeMode>
					<coordinates>130.85,-12.4667,973982.000000</coordinates>
					<extrude>1</extrude>
				</Point>
			</Placemark>
			<Placemark>
				<name>Daylesford, AUSTRALIA: 2 hits</name>
				<styleUrl>#sphere_icon</styleUrl>
				<Point>
					<altitudeMode>relativeToGround</altitudeMode>
					<coordinates>144.15,-37.35,247835.000000</coordinates>
					<extrude>1</extrude>
				</Point>
			</Placemark>
			<Placemark>
				<name>Deception Bay, AUSTRALIA: 1 hits</name>
				<styleUrl>#sphere_icon</styleUrl>
				<Point>
					<altitudeMode>relativeToGround</altitudeMode>
					<coordinates>153.033,-27.2,156367.000000</coordinates>
					<extrude>1</extrude>
				</Point>
			</Placemark>
			<Placemark>
				<name>Devonport, AUSTRALIA: 2 hits</name>
				<styleUrl>#sphere_icon</styleUrl>
				<Point>
					<altitudeMode>relativeToGround</altitudeMode>
					<coordinates>146.35,-41.1667,247835.000000</coordinates>
					<extrude>1</extrude>
				</Point>
			</Placemark>
			<Placemark>
				<name>Doncaster, AUSTRALIA: 4 hits</name>
				<styleUrl>#sphere_icon</styleUrl>
				<Point>
					<altitudeMode>relativeToGround</altitudeMode>
					<coordinates>145.133,-37.7833,363073.000000</coordinates>
					<extrude>1</extrude>
				</Point>
			</Placemark>
			<Placemark>
				<name>Dubbo, AUSTRALIA: 8 hits</name>
				<styleUrl>#sphere_icon</styleUrl>
				<Point>
					<altitudeMode>relativeToGround</altitudeMode>
					<coordinates>148.6,-32.25,495671.000000</coordinates>
					<extrude>1</extrude>
				</Point>
			</Placemark>
			<Placemark>
				<name>Dunnee, AUSTRALIA: 10 hits</name>
				<styleUrl>#sphere_icon</styleUrl>
				<Point>
					<altitudeMode>relativeToGround</altitudeMode>
					<coordinates>150.433,-30.2,540941.000000</coordinates>
					<extrude>1</extrude>
				</Point>
			</Placemark>
			<Placemark>
				<name>Dunolly, AUSTRALIA: 3 hits</name>
				<styleUrl>#sphere_icon</styleUrl>
				<Point>
					<altitudeMode>relativeToGround</altitudeMode>
					<coordinates>143.733,-36.85,312734.000000</coordinates>
					<extrude>1</extrude>
				</Point>
			</Placemark>
			<Placemark>
				<name>East Burwood, AUSTRALIA: 4 hits</name>
				<styleUrl>#sphere_icon</styleUrl>
				<Point>
					<altitudeMode>relativeToGround</altitudeMode>
					<coordinates>145.15,-37.85,363073.000000</coordinates>
					<extrude>1</extrude>
				</Point>
			</Placemark>
			<Placemark>
				<name>Elwood, AUSTRALIA: 13 hits</name>
				<styleUrl>#sphere_icon</styleUrl>
				<Point>
					<altitudeMode>relativeToGround</altitudeMode>
					<coordinates>144.983,-37.8833,595345.000000</coordinates>
					<extrude>1</extrude>
				</Point>
			</Placemark>
			<Placemark>
				<name>Engadine, AUSTRALIA: 22 hits</name>
				<styleUrl>#sphere_icon</styleUrl>
				<Point>
					<altitudeMode>relativeToGround</altitudeMode>
					<coordinates>151.017,-34.0667,707336.000000</coordinates>
					<extrude>1</extrude>
				</Point>
			</Placemark>
			<Placemark>
				<name>Essendon, AUSTRALIA: 2 hits</name>
				<styleUrl>#sphere_icon</styleUrl>
				<Point>
					<altitudeMode>relativeToGround</altitudeMode>
					<coordinates>144.917,-37.7667,247835.000000</coordinates>
					<extrude>1</extrude>
				</Point>
			</Placemark>
			<Placemark>
				<name>Fairfield, AUSTRALIA: 4 hits</name>
				<styleUrl>#sphere_icon</styleUrl>
				<Point>
					<altitudeMode>relativeToGround</altitudeMode>
					<coordinates>150.95,-33.8667,363073.000000</coordinates>
					<extrude>1</extrude>
				</Point>
			</Placemark>
			<Placemark>
				<name>Fern Tree Gully, AUSTRALIA: 6 hits</name>
				<styleUrl>#sphere_icon</styleUrl>
				<Point>
					<altitudeMode>relativeToGround</altitudeMode>
					<coordinates>145.3,-37.8833,438977.000000</coordinates>
					<extrude>1</extrude>
				</Point>
			</Placemark>
			<Placemark>
				<name>Fitzroy, AUSTRALIA: 1 hits</name>
				<styleUrl>#sphere_icon</styleUrl>
				<Point>
					<altitudeMode>relativeToGround</altitudeMode>
					<coordinates>125.583,-18.1833,156367.000000</coordinates>
					<extrude>1</extrude>
				</Point>
			</Placemark>
			<Placemark>
				<name>Frankston, AUSTRALIA: 125 hits</name>
				<styleUrl>#sphere_icon</styleUrl>
				<Point>
					<altitudeMode>relativeToGround</altitudeMode>
					<coordinates>145.117,-38.1333,1091016.000000</coordinates>
					<extrude>1</extrude>
				</Point>
			</Placemark>
			<Placemark>
				<name>Fremantle, AUSTRALIA: 28 hits</name>
				<styleUrl>#sphere_icon</styleUrl>
				<Point>
					<altitudeMode>relativeToGround</altitudeMode>
					<coordinates>115.767,-32.05,759628.000000</coordinates>
					<extrude>1</extrude>
				</Point>
			</Placemark>
			<Placemark>
				<name>Gawler, AUSTRALIA: 4 hits</name>
				<styleUrl>#sphere_icon</styleUrl>
				<Point>
					<altitudeMode>relativeToGround</altitudeMode>
					<coordinates>138.733,-34.6,363073.000000</coordinates>
					<extrude>1</extrude>
				</Point>
			</Placemark>
			<Placemark>
				<name>Geelong, AUSTRALIA: 19 hits</name>
				<styleUrl>#sphere_icon</styleUrl>
				<Point>
					<altitudeMode>relativeToGround</altitudeMode>
					<coordinates>144.35,-38.1333,675807.000000</coordinates>
					<extrude>1</extrude>
				</Point>
			</Placemark>
			<Placemark>
				<name>Geraldton, AUSTRALIA: 1 hits</name>
				<styleUrl>#sphere_icon</styleUrl>
				<Point>
					<altitudeMode>relativeToGround</altitudeMode>
					<coordinates>146.033,-17.5333,156367.000000</coordinates>
					<extrude>1</extrude>
				</Point>
			</Placemark>
			<Placemark>
				<name>Gladstone, AUSTRALIA: 1 hits</name>
				<styleUrl>#sphere_icon</styleUrl>
				<Point>
					<altitudeMode>relativeToGround</altitudeMode>
					<coordinates>151.25,-23.85,156367.000000</coordinates>
					<extrude>1</extrude>
				</Point>
			</Placemark>
			<Placemark>
				<name>Glen Waverley, AUSTRALIA: 9 hits</name>
				<styleUrl>#sphere_icon</styleUrl>
				<Point>
					<altitudeMode>relativeToGround</altitudeMode>
					<coordinates>145.167,-37.8833,519440.000000</coordinates>
					<extrude>1</extrude>
				</Point>
			</Placemark>
			<Placemark>
				<name>Glengarry, AUSTRALIA: 11 hits</name>
				<styleUrl>#sphere_icon</styleUrl>
				<Point>
					<altitudeMode>relativeToGround</altitudeMode>
					<coordinates>146.567,-38.1167,560570.000000</coordinates>
					<extrude>1</extrude>
				</Point>
			</Placemark>
			<Placemark>
				<name>Glenreagh, AUSTRALIA: 25 hits</name>
				<styleUrl>#sphere_icon</styleUrl>
				<Point>
					<altitudeMode>relativeToGround</altitudeMode>
					<coordinates>152.967,-30.05,734994.000000</coordinates>
					<extrude>1</extrude>
				</Point>
			</Placemark>
			<Placemark>
				<name>Gold Coast, AUSTRALIA: 319 hits</name>
				<styleUrl>#sphere_icon</styleUrl>
				<Point>
					<altitudeMode>relativeToGround</altitudeMode>
					<coordinates>153.417,-27.9667,1301275.000000</coordinates>
					<extrude>1</extrude>
				</Point>
			</Placemark>
			<Placemark>
				<name>Gosford, AUSTRALIA: 15 hits</name>
				<styleUrl>#sphere_icon</styleUrl>
				<Point>
					<altitudeMode>relativeToGround</altitudeMode>
					<coordinates>151.35,-33.4333,625468.000000</coordinates>
					<extrude>1</extrude>
				</Point>
			</Placemark>
			<Placemark>
				<name>Goulburn, AUSTRALIA: 3 hits</name>
				<styleUrl>#sphere_icon</styleUrl>
				<Point>
					<altitudeMode>relativeToGround</altitudeMode>
					<coordinates>149.717,-34.75,312734.000000</coordinates>
					<extrude>1</extrude>
				</Point>
			</Placemark>
			<Placemark>
				<name>Grafton, AUSTRALIA: 7 hits</name>
				<styleUrl>#sphere_icon</styleUrl>
				<Point>
					<altitudeMode>relativeToGround</altitudeMode>
					<coordinates>152.933,-29.6833,469101.000000</coordinates>
					<extrude>1</extrude>
				</Point>
			</Placemark>
			<Placemark>
				<name>Green Point, AUSTRALIA: 15 hits</name>
				<styleUrl>#sphere_icon</styleUrl>
				<Point>
					<altitudeMode>relativeToGround</altitudeMode>
					<coordinates>150.783,-35.1,625468.000000</coordinates>
					<extrude>1</extrude>
				</Point>
			</Placemark>
			<Placemark>
				<name>Greenvale, AUSTRALIA: 7 hits</name>
				<styleUrl>#sphere_icon</styleUrl>
				<Point>
					<altitudeMode>relativeToGround</altitudeMode>
					<coordinates>144.867,-37.6333,469101.000000</coordinates>
					<extrude>1</extrude>
				</Point>
			</Placemark>
			<Placemark>
				<name>Griffith, AUSTRALIA: 3 hits</name>
				<styleUrl>#sphere_icon</styleUrl>
				<Point>
					<altitudeMode>relativeToGround</altitudeMode>
					<coordinates>146.05,-34.2833,312734.000000</coordinates>
					<extrude>1</extrude>
				</Point>
			</Placemark>
			<Placemark>
				<name>Gunnedah, AUSTRALIA: 9 hits</name>
				<styleUrl>#sphere_icon</styleUrl>
				<Point>
					<altitudeMode>relativeToGround</altitudeMode>
					<coordinates>150.25,-30.9833,519440.000000</coordinates>
					<extrude>1</extrude>
				</Point>
			</Placemark>
			<Placemark>
				<name>Gymea, AUSTRALIA: 2 hits</name>
				<styleUrl>#sphere_icon</styleUrl>
				<Point>
					<altitudeMode>relativeToGround</altitudeMode>
					<coordinates>151.083,-34.0333,247835.000000</coordinates>
					<extrude>1</extrude>
				</Point>
			</Placemark>
			<Placemark>
				<name>Gympie, AUSTRALIA: 2 hits</name>
				<styleUrl>#sphere_icon</styleUrl>
				<Point>
					<altitudeMode>relativeToGround</altitudeMode>
					<coordinates>152.667,-26.1833,247835.000000</coordinates>
					<extrude>1</extrude>
				</Point>
			</Placemark>
			<Placemark>
				<name>Hawthorn, AUSTRALIA: 4 hits</name>
				<styleUrl>#sphere_icon</styleUrl>
				<Point>
					<altitudeMode>relativeToGround</altitudeMode>
					<coordinates>145.033,-37.8333,363073.000000</coordinates>
					<extrude>1</extrude>
				</Point>
			</Placemark>
			<Placemark>
				<name>Heathfield, AUSTRALIA: 22 hits</name>
				<styleUrl>#sphere_icon</styleUrl>
				<Point>
					<altitudeMode>relativeToGround</altitudeMode>
					<coordinates>138.717,-35.0167,707336.000000</coordinates>
					<extrude>1</extrude>
				</Point>
			</Placemark>
			<Placemark>
				<name>Hobart, AUSTRALIA: 261 hits</name>
				<styleUrl>#sphere_icon</styleUrl>
				<Point>
					<altitudeMode>relativeToGround</altitudeMode>
					<coordinates>147.317,-42.8833,1256162.000000</coordinates>
					<extrude>1</extrude>
				</Point>
			</Placemark>
			<Placemark>
				<name>Hope Island, AUSTRALIA: 1 hits</name>
				<styleUrl>#sphere_icon</styleUrl>
				<Point>
					<altitudeMode>relativeToGround</altitudeMode>
					<coordinates>153.367,-27.8667,156367.000000</coordinates>
					<extrude>1</extrude>
				</Point>
			</Placemark>
			<Placemark>
				<name>Hornsby, AUSTRALIA: 26 hits</name>
				<styleUrl>#sphere_icon</styleUrl>
				<Point>
					<altitudeMode>relativeToGround</altitudeMode>
					<coordinates>151.1,-33.7,743507.000000</coordinates>
					<extrude>1</extrude>
				</Point>
			</Placemark>
			<Placemark>
				<name>Ipswich, AUSTRALIA: 1 hits</name>
				<styleUrl>#sphere_icon</styleUrl>
				<Point>
					<altitudeMode>relativeToGround</altitudeMode>
					<coordinates>152.767,-27.6167,156367.000000</coordinates>
					<extrude>1</extrude>
				</Point>
			</Placemark>
			<Placemark>
				<name>Kalgoorlie, AUSTRALIA: 8 hits</name>
				<styleUrl>#sphere_icon</styleUrl>
				<Point>
					<altitudeMode>relativeToGround</altitudeMode>
					<coordinates>121.467,-30.75,495671.000000</coordinates>
					<extrude>1</extrude>
				</Point>
			</Placemark>
			<Placemark>
				<name>Kandos, AUSTRALIA: 9 hits</name>
				<styleUrl>#sphere_icon</styleUrl>
				<Point>
					<altitudeMode>relativeToGround</altitudeMode>
					<coordinates>149.967,-32.85,519440.000000</coordinates>
					<extrude>1</extrude>
				</Point>
			</Placemark>
			<Placemark>
				<name>Katoomba, AUSTRALIA: 3 hits</name>
				<styleUrl>#sphere_icon</styleUrl>
				<Point>
					<altitudeMode>relativeToGround</altitudeMode>
					<coordinates>150.3,-33.7,312734.000000</coordinates>
					<extrude>1</extrude>
				</Point>
			</Placemark>
			<Placemark>
				<name>Kempsey, AUSTRALIA: 25 hits</name>
				<styleUrl>#sphere_icon</styleUrl>
				<Point>
					<altitudeMode>relativeToGround</altitudeMode>
					<coordinates>152.833,-31.0833,734994.000000</coordinates>
					<extrude>1</extrude>
				</Point>
			</Placemark>
			<Placemark>
				<name>Kenmore, AUSTRALIA: 9 hits</name>
				<styleUrl>#sphere_icon</styleUrl>
				<Point>
					<altitudeMode>relativeToGround</altitudeMode>
					<coordinates>149.75,-34.7167,519440.000000</coordinates>
					<extrude>1</extrude>
				</Point>
			</Placemark>
			<Placemark>
				<name>Kiama, AUSTRALIA: 4 hits</name>
				<styleUrl>#sphere_icon</styleUrl>
				<Point>
					<altitudeMode>relativeToGround</altitudeMode>
					<coordinates>150.867,-34.6833,363073.000000</coordinates>
					<extrude>1</extrude>
				</Point>
			</Placemark>
			<Placemark>
				<name>Kingston, AUSTRALIA: 2 hits</name>
				<styleUrl>#sphere_icon</styleUrl>
				<Point>
					<altitudeMode>relativeToGround</altitudeMode>
					<coordinates>153.117,-27.6667,247835.000000</coordinates>
					<extrude>1</extrude>
				</Point>
			</Placemark>
			<Placemark>
				<name>Kyabram, AUSTRALIA: 23 hits</name>
				<styleUrl>#sphere_icon</styleUrl>
				<Point>
					<altitudeMode>relativeToGround</altitudeMode>
					<coordinates>145.05,-36.3167,716937.000000</coordinates>
					<extrude>1</extrude>
				</Point>
			</Placemark>
			<Placemark>
				<name>Kyneton, AUSTRALIA: 1 hits</name>
				<styleUrl>#sphere_icon</styleUrl>
				<Point>
					<altitudeMode>relativeToGround</altitudeMode>
					<coordinates>144.433,-37.25,156367.000000</coordinates>
					<extrude>1</extrude>
				</Point>
			</Placemark>
			<Placemark>
				<name>Launceston, AUSTRALIA: 14 hits</name>
				<styleUrl>#sphere_icon</styleUrl>
				<Point>
					<altitudeMode>relativeToGround</altitudeMode>
					<coordinates>147.133,-41.4167,610909.000000</coordinates>
					<extrude>1</extrude>
				</Point>
			</Placemark>
			<Placemark>
				<name>Lewiston, AUSTRALIA: 7 hits</name>
				<styleUrl>#sphere_icon</styleUrl>
				<Point>
					<altitudeMode>relativeToGround</altitudeMode>
					<coordinates>138.6,-34.6,469101.000000</coordinates>
					<extrude>1</extrude>
				</Point>
			</Placemark>
			<Placemark>
				<name>Linton, AUSTRALIA: 125 hits</name>
				<styleUrl>#sphere_icon</styleUrl>
				<Point>
					<altitudeMode>relativeToGround</altitudeMode>
					<coordinates>143.567,-37.6833,1091016.000000</coordinates>
					<extrude>1</extrude>
				</Point>
			</Placemark>
			<Placemark>
				<name>Lismore, AUSTRALIA: 87 hits</name>
				<styleUrl>#sphere_icon</styleUrl>
				<Point>
					<altitudeMode>relativeToGround</altitudeMode>
					<coordinates>153.267,-28.8,1010042.000000</coordinates>
					<extrude>1</extrude>
				</Point>
			</Placemark>
			<Placemark>
				<name>Liverpool, AUSTRALIA: 86 hits</name>
				<styleUrl>#sphere_icon</styleUrl>
				<Point>
					<altitudeMode>relativeToGround</altitudeMode>
					<coordinates>150.933,-33.9,1007464.000000</coordinates>
					<extrude>1</extrude>
				</Point>
			</Placemark>
			<Placemark>
				<name>Lower Templestowe, AUSTRALIA: 3 hits</name>
				<styleUrl>#sphere_icon</styleUrl>
				<Point>
					<altitudeMode>relativeToGround</altitudeMode>
					<coordinates>145.117,-37.7667,312734.000000</coordinates>
					<extrude>1</extrude>
				</Point>
			</Placemark>
			<Placemark>
				<name>Mackay, AUSTRALIA: 15 hits</name>
				<styleUrl>#sphere_icon</styleUrl>
				<Point>
					<altitudeMode>relativeToGround</altitudeMode>
					<coordinates>149.2,-21.15,625468.000000</coordinates>
					<extrude>1</extrude>
				</Point>
			</Placemark>
			<Placemark>
				<name>Mandurah, AUSTRALIA: 2 hits</name>
				<styleUrl>#sphere_icon</styleUrl>
				<Point>
					<altitudeMode>relativeToGround</altitudeMode>
					<coordinates>115.7,-32.55,247835.000000</coordinates>
					<extrude>1</extrude>
				</Point>
			</Placemark>
			<Placemark>
				<name>Manly, AUSTRALIA: 1 hits</name>
				<styleUrl>#sphere_icon</styleUrl>
				<Point>
					<altitudeMode>relativeToGround</altitudeMode>
					<coordinates>153.183,-27.4667,156367.000000</coordinates>
					<extrude>1</extrude>
				</Point>
			</Placemark>
			<Placemark>
				<name>Manning, AUSTRALIA: 109 hits</name>
				<styleUrl>#sphere_icon</styleUrl>
				<Point>
					<altitudeMode>relativeToGround</altitudeMode>
					<coordinates>115.85,-32.0,1060381.000000</coordinates>
					<extrude>1</extrude>
				</Point>
			</Placemark>
			<Placemark>
				<name>Maroochydore, AUSTRALIA: 13 hits</name>
				<styleUrl>#sphere_icon</styleUrl>
				<Point>
					<altitudeMode>relativeToGround</altitudeMode>
					<coordinates>153.12,-26.68,595345.000000</coordinates>
					<extrude>1</extrude>
				</Point>
			</Placemark>
			<Placemark>
				<name>Maryborough, AUSTRALIA: 29 hits</name>
				<styleUrl>#sphere_icon</styleUrl>
				<Point>
					<altitudeMode>relativeToGround</altitudeMode>
					<coordinates>152.7,-25.5333,767276.000000</coordinates>
					<extrude>1</extrude>
				</Point>
			</Placemark>
			<Placemark>
				<name>Matcham, AUSTRALIA: 1 hits</name>
				<styleUrl>#sphere_icon</styleUrl>
				<Point>
					<altitudeMode>relativeToGround</altitudeMode>
					<coordinates>151.417,-33.4167,156367.000000</coordinates>
					<extrude>1</extrude>
				</Point>
			</Placemark>
			<Placemark>
				<name>Medowie, AUSTRALIA: 1 hits</name>
				<styleUrl>#sphere_icon</styleUrl>
				<Point>
					<altitudeMode>relativeToGround</altitudeMode>
					<coordinates>151.867,-32.7333,156367.000000</coordinates>
					<extrude>1</extrude>
				</Point>
			</Placemark>
			<Placemark>
				<name>Melbourne, AUSTRALIA: 2279 hits</name>
				<styleUrl>#sphere_icon</styleUrl>
				<Point>
					<altitudeMode>relativeToGround</altitudeMode>
					<coordinates>144.967,-37.7833,1744246.000000</coordinates>
					<extrude>1</extrude>
				</Point>
			</Placemark>
			<Placemark>
				<name>Melton, AUSTRALIA: 58 hits</name>
				<styleUrl>#sphere_icon</styleUrl>
				<Point>
					<altitudeMode>relativeToGround</altitudeMode>
					<coordinates>144.583,-37.6833,919851.000000</coordinates>
					<extrude>1</extrude>
				</Point>
			</Placemark>
			<Placemark>
				<name>Mildura, AUSTRALIA: 59 hits</name>
				<styleUrl>#sphere_icon</styleUrl>
				<Point>
					<altitudeMode>relativeToGround</altitudeMode>
					<coordinates>142.15,-34.2,923643.000000</coordinates>
					<extrude>1</extrude>
				</Point>
			</Placemark>
			<Placemark>
				<name>Milton, AUSTRALIA: 38 hits</name>
				<styleUrl>#sphere_icon</styleUrl>
				<Point>
					<altitudeMode>relativeToGround</altitudeMode>
					<coordinates>150.433,-35.3167,826462.000000</coordinates>
					<extrude>1</extrude>
				</Point>
			</Placemark>
			<Placemark>
				<name>Minto, AUSTRALIA: 2 hits</name>
				<styleUrl>#sphere_icon</styleUrl>
				<Point>
					<altitudeMode>relativeToGround</altitudeMode>
					<coordinates>150.85,-34.0333,247835.000000</coordinates>
					<extrude>1</extrude>
				</Point>
			</Placemark>
			<Placemark>
				<name>Mitchelton, AUSTRALIA: 1 hits</name>
				<styleUrl>#sphere_icon</styleUrl>
				<Point>
					<altitudeMode>relativeToGround</altitudeMode>
					<coordinates>152.967,-27.4167,156367.000000</coordinates>
					<extrude>1</extrude>
				</Point>
			</Placemark>
			<Placemark>
				<name>Moltema, AUSTRALIA: 3 hits</name>
				<styleUrl>#sphere_icon</styleUrl>
				<Point>
					<altitudeMode>relativeToGround</altitudeMode>
					<coordinates>146.533,-41.45,312734.000000</coordinates>
					<extrude>1</extrude>
				</Point>
			</Placemark>
			<Placemark>
				<name>Montville, AUSTRALIA: 1 hits</name>
				<styleUrl>#sphere_icon</styleUrl>
				<Point>
					<altitudeMode>relativeToGround</altitudeMode>
					<coordinates>152.883,-26.6833,156367.000000</coordinates>
					<extrude>1</extrude>
				</Point>
			</Placemark>
			<Placemark>
				<name>Mooloolaba, AUSTRALIA: 2 hits</name>
				<styleUrl>#sphere_icon</styleUrl>
				<Point>
					<altitudeMode>relativeToGround</altitudeMode>
					<coordinates>153.117,-26.6833,247835.000000</coordinates>
					<extrude>1</extrude>
				</Point>
			</Placemark>
			<Placemark>
				<name>Mooloolah, AUSTRALIA: 95 hits</name>
				<styleUrl>#sphere_icon</styleUrl>
				<Point>
					<altitudeMode>relativeToGround</altitudeMode>
					<coordinates>152.967,-26.7667,1029671.000000</coordinates>
					<extrude>1</extrude>
				</Point>
			</Placemark>
			<Placemark>
				<name>Moorabbin, AUSTRALIA: 5 hits</name>
				<styleUrl>#sphere_icon</styleUrl>
				<Point>
					<altitudeMode>relativeToGround</altitudeMode>
					<coordinates>145.033,-37.9333,404203.000000</coordinates>
					<extrude>1</extrude>
				</Point>
			</Placemark>
			<Placemark>
				<name>Mornington, AUSTRALIA: 1 hits</name>
				<styleUrl>#sphere_icon</styleUrl>
				<Point>
					<altitudeMode>relativeToGround</altitudeMode>
					<coordinates>145.05,-38.2167,156367.000000</coordinates>
					<extrude>1</extrude>
				</Point>
			</Placemark>
			<Placemark>
				<name>Mosman, AUSTRALIA: 17 hits</name>
				<styleUrl>#sphere_icon</styleUrl>
				<Point>
					<altitudeMode>relativeToGround</altitudeMode>
					<coordinates>151.233,-33.8167,652039.000000</coordinates>
					<extrude>1</extrude>
				</Point>
			</Placemark>
			<Placemark>
				<name>Mount Gambier, AUSTRALIA: 1 hits</name>
				<styleUrl>#sphere_icon</styleUrl>
				<Point>
					<altitudeMode>relativeToGround</altitudeMode>
					<coordinates>140.767,-37.8333,156367.000000</coordinates>
					<extrude>1</extrude>
				</Point>
			</Placemark>
			<Placemark>
				<name>Mount Isa, AUSTRALIA: 23 hits</name>
				<styleUrl>#sphere_icon</styleUrl>
				<Point>
					<altitudeMode>relativeToGround</altitudeMode>
					<coordinates>139.5,-20.7333,716937.000000</coordinates>
					<extrude>1</extrude>
				</Point>
			</Placemark>
			<Placemark>
				<name>Mount Martha, AUSTRALIA: 5 hits</name>
				<styleUrl>#sphere_icon</styleUrl>
				<Point>
					<altitudeMode>relativeToGround</altitudeMode>
					<coordinates>145.017,-38.2667,404203.000000</coordinates>
					<extrude>1</extrude>
				</Point>
			</Placemark>
			<Placemark>
				<name>Mullumbimby, AUSTRALIA: 6 hits</name>
				<styleUrl>#sphere_icon</styleUrl>
				<Point>
					<altitudeMode>relativeToGround</altitudeMode>
					<coordinates>153.5,-28.55,438977.000000</coordinates>
					<extrude>1</extrude>
				</Point>
			</Placemark>
			<Placemark>
				<name>Myrtleford, AUSTRALIA: 1 hits</name>
				<styleUrl>#sphere_icon</styleUrl>
				<Point>
					<altitudeMode>relativeToGround</altitudeMode>
					<coordinates>146.733,-36.55,156367.000000</coordinates>
					<extrude>1</extrude>
				</Point>
			</Placemark>
			<Placemark>
				<name>Narellan, AUSTRALIA: 9 hits</name>
				<styleUrl>#sphere_icon</styleUrl>
				<Point>
					<altitudeMode>relativeToGround</altitudeMode>
					<coordinates>150.733,-34.0333,519440.000000</coordinates>
					<extrude>1</extrude>
				</Point>
			</Placemark>
			<Placemark>
				<name>Narre Warren, AUSTRALIA: 13 hits</name>
				<styleUrl>#sphere_icon</styleUrl>
				<Point>
					<altitudeMode>relativeToGround</altitudeMode>
					<coordinates>145.3,-38.0333,595345.000000</coordinates>
					<extrude>1</extrude>
				</Point>
			</Placemark>
			<Placemark>
				<name>Nerang, AUSTRALIA: 1 hits</name>
				<styleUrl>#sphere_icon</styleUrl>
				<Point>
					<altitudeMode>relativeToGround</altitudeMode>
					<coordinates>153.333,-27.9833,156367.000000</coordinates>
					<extrude>1</extrude>
				</Point>
			</Placemark>
			<Placemark>
				<name>Newcastle, AUSTRALIA: 108 hits</name>
				<styleUrl>#sphere_icon</styleUrl>
				<Point>
					<altitudeMode>relativeToGround</altitudeMode>
					<coordinates>151.75,-32.9167,1058321.000000</coordinates>
					<extrude>1</extrude>
				</Point>
			</Placemark>
			<Placemark>
				<name>Newlyn, AUSTRALIA: 2 hits</name>
				<styleUrl>#sphere_icon</styleUrl>
				<Point>
					<altitudeMode>relativeToGround</altitudeMode>
					<coordinates>143.983,-37.4167,247835.000000</coordinates>
					<extrude>1</extrude>
				</Point>
			</Placemark>
			<Placemark>
				<name>Newmarket, AUSTRALIA: 1 hits</name>
				<styleUrl>#sphere_icon</styleUrl>
				<Point>
					<altitudeMode>relativeToGround</altitudeMode>
					<coordinates>153.017,-27.4333,156367.000000</coordinates>
					<extrude>1</extrude>
				</Point>
			</Placemark>
			<Placemark>
				<name>Nimmitabel, AUSTRALIA: 62 hits</name>
				<styleUrl>#sphere_icon</styleUrl>
				<Point>
					<altitudeMode>relativeToGround</altitudeMode>
					<coordinates>149.283,-36.5167,934649.000000</coordinates>
					<extrude>1</extrude>
				</Point>
			</Placemark>
			<Placemark>
				<name>Noosa Heads, AUSTRALIA: 1 hits</name>
				<styleUrl>#sphere_icon</styleUrl>
				<Point>
					<altitudeMode>relativeToGround</altitudeMode>
					<coordinates>153.15,-26.3833,156367.000000</coordinates>
					<extrude>1</extrude>
				</Point>
			</Placemark>
			<Placemark>
				<name>Noosa, AUSTRALIA: 2 hits</name>
				<styleUrl>#sphere_icon</styleUrl>
				<Point>
					<altitudeMode>relativeToGround</altitudeMode>
					<coordinates>153.087,-26.3833,247835.000000</coordinates>
					<extrude>1</extrude>
				</Point>
			</Placemark>
			<Placemark>
				<name>North Ryde, AUSTRALIA: 1 hits</name>
				<styleUrl>#sphere_icon</styleUrl>
				<Point>
					<altitudeMode>relativeToGround</altitudeMode>
					<coordinates>151.117,-33.766,156367.000000</coordinates>
					<extrude>1</extrude>
				</Point>
			</Placemark>
			<Placemark>
				<name>North Turramurra, AUSTRALIA: 1 hits</name>
				<styleUrl>#sphere_icon</styleUrl>
				<Point>
					<altitudeMode>relativeToGround</altitudeMode>
					<coordinates>151.15,-33.7167,156367.000000</coordinates>
					<extrude>1</extrude>
				</Point>
			</Placemark>
			<Placemark>
				<name>Norwood, AUSTRALIA: 2 hits</name>
				<styleUrl>#sphere_icon</styleUrl>
				<Point>
					<altitudeMode>relativeToGround</altitudeMode>
					<coordinates>149.733,-34.6667,247835.000000</coordinates>
					<extrude>1</extrude>
				</Point>
			</Placemark>
			<Placemark>
				<name>Nowra, AUSTRALIA: 26 hits</name>
				<styleUrl>#sphere_icon</styleUrl>
				<Point>
					<altitudeMode>relativeToGround</altitudeMode>
					<coordinates>150.6,-34.8833,743507.000000</coordinates>
					<extrude>1</extrude>
				</Point>
			</Placemark>
			<Placemark>
				<name>Orange, AUSTRALIA: 5 hits</name>
				<styleUrl>#sphere_icon</styleUrl>
				<Point>
					<altitudeMode>relativeToGround</altitudeMode>
					<coordinates>149.1,-33.2833,404203.000000</coordinates>
					<extrude>1</extrude>
				</Point>
			</Placemark>
			<Placemark>
				<name>Parramatta, AUSTRALIA: 1 hits</name>
				<styleUrl>#sphere_icon</styleUrl>
				<Point>
					<altitudeMode>relativeToGround</altitudeMode>
					<coordinates>151.0,-33.8167,156367.000000</coordinates>
					<extrude>1</extrude>
				</Point>
			</Placemark>
			<Placemark>
				<name>Pennant Hills, AUSTRALIA: 2 hits</name>
				<styleUrl>#sphere_icon</styleUrl>
				<Point>
					<altitudeMode>relativeToGround</altitudeMode>
					<coordinates>151.067,-33.7333,247835.000000</coordinates>
					<extrude>1</extrude>
				</Point>
			</Placemark>
			<Placemark>
				<name>Penrith, AUSTRALIA: 10 hits</name>
				<styleUrl>#sphere_icon</styleUrl>
				<Point>
					<altitudeMode>relativeToGround</altitudeMode>
					<coordinates>150.7,-33.75,540941.000000</coordinates>
					<extrude>1</extrude>
				</Point>
			</Placemark>
			<Placemark>
				<name>Perth, AUSTRALIA: 2772 hits</name>
				<styleUrl>#sphere_icon</styleUrl>
				<Point>
					<altitudeMode>relativeToGround</altitudeMode>
					<coordinates>115.867,-31.95,1788406.000000</coordinates>
					<extrude>1</extrude>
				</Point>
			</Placemark>
			<Placemark>
				<name>Pimpama, AUSTRALIA: 9 hits</name>
				<styleUrl>#sphere_icon</styleUrl>
				<Point>
					<altitudeMode>relativeToGround</altitudeMode>
					<coordinates>153.3,-27.8167,519440.000000</coordinates>
					<extrude>1</extrude>
				</Point>
			</Placemark>
			<Placemark>
				<name>Point Cook, AUSTRALIA: 5 hits</name>
				<styleUrl>#sphere_icon</styleUrl>
				<Point>
					<altitudeMode>relativeToGround</altitudeMode>
					<coordinates>144.8,-37.9167,404203.000000</coordinates>
					<extrude>1</extrude>
				</Point>
			</Placemark>
			<Placemark>
				<name>Port Hedland, AUSTRALIA: 7 hits</name>
				<styleUrl>#sphere_icon</styleUrl>
				<Point>
					<altitudeMode>relativeToGround</altitudeMode>
					<coordinates>118.567,-20.3167,469101.000000</coordinates>
					<extrude>1</extrude>
				</Point>
			</Placemark>
			<Placemark>
				<name>Port Macquarie, AUSTRALIA: 28 hits</name>
				<styleUrl>#sphere_icon</styleUrl>
				<Point>
					<altitudeMode>relativeToGround</altitudeMode>
					<coordinates>152.917,-31.4333,759628.000000</coordinates>
					<extrude>1</extrude>
				</Point>
			</Placemark>
			<Placemark>
				<name>Portsea, AUSTRALIA: 1 hits</name>
				<styleUrl>#sphere_icon</styleUrl>
				<Point>
					<altitudeMode>relativeToGround</altitudeMode>
					<coordinates>144.717,-38.3167,156367.000000</coordinates>
					<extrude>1</extrude>
				</Point>
			</Placemark>
			<Placemark>
				<name>Preston, AUSTRALIA: 3 hits</name>
				<styleUrl>#sphere_icon</styleUrl>
				<Point>
					<altitudeMode>relativeToGround</altitudeMode>
					<coordinates>145.017,-37.75,312734.000000</coordinates>
					<extrude>1</extrude>
				</Point>
			</Placemark>
			<Placemark>
				<name>Prospect, AUSTRALIA: 2 hits</name>
				<styleUrl>#sphere_icon</styleUrl>
				<Point>
					<altitudeMode>relativeToGround</altitudeMode>
					<coordinates>138.583,-34.8833,247835.000000</coordinates>
					<extrude>1</extrude>
				</Point>
			</Placemark>
			<Placemark>
				<name>Quakers Hill, AUSTRALIA: 7 hits</name>
				<styleUrl>#sphere_icon</styleUrl>
				<Point>
					<altitudeMode>relativeToGround</altitudeMode>
					<coordinates>150.883,-33.7333,469101.000000</coordinates>
					<extrude>1</extrude>
				</Point>
			</Placemark>
			<Placemark>
				<name>Red Cliffs, AUSTRALIA: 4 hits</name>
				<styleUrl>#sphere_icon</styleUrl>
				<Point>
					<altitudeMode>relativeToGround</altitudeMode>
					<coordinates>142.183,-34.3167,363073.000000</coordinates>
					<extrude>1</extrude>
				</Point>
			</Placemark>
			<Placemark>
				<name>Redcliffe, AUSTRALIA: 38 hits</name>
				<styleUrl>#sphere_icon</styleUrl>
				<Point>
					<altitudeMode>relativeToGround</altitudeMode>
					<coordinates>153.117,-27.2333,826462.000000</coordinates>
					<extrude>1</extrude>
				</Point>
			</Placemark>
			<Placemark>
				<name>Richmond, AUSTRALIA: 26 hits</name>
				<styleUrl>#sphere_icon</styleUrl>
				<Point>
					<altitudeMode>relativeToGround</altitudeMode>
					<coordinates>143.133,-20.7167,743507.000000</coordinates>
					<extrude>1</extrude>
				</Point>
			</Placemark>
			<Placemark>
				<name>Riverwood, AUSTRALIA: 2 hits</name>
				<styleUrl>#sphere_icon</styleUrl>
				<Point>
					<altitudeMode>relativeToGround</altitudeMode>
					<coordinates>151.05,-33.95,247835.000000</coordinates>
					<extrude>1</extrude>
				</Point>
			</Placemark>
			<Placemark>
				<name>Robina, AUSTRALIA: 9 hits</name>
				<styleUrl>#sphere_icon</styleUrl>
				<Point>
					<altitudeMode>relativeToGround</altitudeMode>
					<coordinates>153.405,-28.065,519440.000000</coordinates>
					<extrude>1</extrude>
				</Point>
			</Placemark>
			<Placemark>
				<name>Rockhampton, AUSTRALIA: 8 hits</name>
				<styleUrl>#sphere_icon</styleUrl>
				<Point>
					<altitudeMode>relativeToGround</altitudeMode>
					<coordinates>150.5,-23.3833,495671.000000</coordinates>
					<extrude>1</extrude>
				</Point>
			</Placemark>
			<Placemark>
				<name>Rockingham, AUSTRALIA: 2 hits</name>
				<styleUrl>#sphere_icon</styleUrl>
				<Point>
					<altitudeMode>relativeToGround</altitudeMode>
					<coordinates>115.717,-32.2833,247835.000000</coordinates>
					<extrude>1</extrude>
				</Point>
			</Placemark>
			<Placemark>
				<name>Rydalmere, AUSTRALIA: 1 hits</name>
				<styleUrl>#sphere_icon</styleUrl>
				<Point>
					<altitudeMode>relativeToGround</altitudeMode>
					<coordinates>151.05,-33.8,156367.000000</coordinates>
					<extrude>1</extrude>
				</Point>
			</Placemark>
			<Placemark>
				<name>Sale, AUSTRALIA: 1 hits</name>
				<styleUrl>#sphere_icon</styleUrl>
				<Point>
					<altitudeMode>relativeToGround</altitudeMode>
					<coordinates>147.067,-38.1,156367.000000</coordinates>
					<extrude>1</extrude>
				</Point>
			</Placemark>
			<Placemark>
				<name>Sandringham, AUSTRALIA: 1 hits</name>
				<styleUrl>#sphere_icon</styleUrl>
				<Point>
					<altitudeMode>relativeToGround</altitudeMode>
					<coordinates>145.0,-37.95,156367.000000</coordinates>
					<extrude>1</extrude>
				</Point>
			</Placemark>
			<Placemark>
				<name>Shailer Park, AUSTRALIA: 1 hits</name>
				<styleUrl>#sphere_icon</styleUrl>
				<Point>
					<altitudeMode>relativeToGround</altitudeMode>
					<coordinates>153.184,-27.6556,156367.000000</coordinates>
					<extrude>1</extrude>
				</Point>
			</Placemark>
			<Placemark>
				<name>Shepparton, AUSTRALIA: 15 hits</name>
				<styleUrl>#sphere_icon</styleUrl>
				<Point>
					<altitudeMode>relativeToGround</altitudeMode>
					<coordinates>145.4,-36.3833,625468.000000</coordinates>
					<extrude>1</extrude>
				</Point>
			</Placemark>
			<Placemark>
				<name>Somerville, AUSTRALIA: 1 hits</name>
				<styleUrl>#sphere_icon</styleUrl>
				<Point>
					<altitudeMode>relativeToGround</altitudeMode>
					<coordinates>145.167,-38.2167,156367.000000</coordinates>
					<extrude>1</extrude>
				</Point>
			</Placemark>
			<Placemark>
				<name>South Yarra, AUSTRALIA: 1 hits</name>
				<styleUrl>#sphere_icon</styleUrl>
				<Point>
					<altitudeMode>relativeToGround</altitudeMode>
					<coordinates>144.983,-37.8333,156367.000000</coordinates>
					<extrude>1</extrude>
				</Point>
			</Placemark>
			<Placemark>
				<name>Southport, AUSTRALIA: 85 hits</name>
				<styleUrl>#sphere_icon</styleUrl>
				<Point>
					<altitudeMode>relativeToGround</altitudeMode>
					<coordinates>153.417,-27.9667,1004856.000000</coordinates>
					<extrude>1</extrude>
				</Point>
			</Placemark>
			<Placemark>
				<name>Springhurst, AUSTRALIA: 2 hits</name>
				<styleUrl>#sphere_icon</styleUrl>
				<Point>
					<altitudeMode>relativeToGround</altitudeMode>
					<coordinates>146.5,-36.2,247835.000000</coordinates>
					<extrude>1</extrude>
				</Point>
			</Placemark>
			<Placemark>
				<name>Stanmore, AUSTRALIA: 7 hits</name>
				<styleUrl>#sphere_icon</styleUrl>
				<Point>
					<altitudeMode>relativeToGround</altitudeMode>
					<coordinates>153.217,-27.75,469101.000000</coordinates>
					<extrude>1</extrude>
				</Point>
			</Placemark>
			<Placemark>
				<name>Strathpine, AUSTRALIA: 4 hits</name>
				<styleUrl>#sphere_icon</styleUrl>
				<Point>
					<altitudeMode>relativeToGround</altitudeMode>
					<coordinates>153.0,-27.2833,363073.000000</coordinates>
					<extrude>1</extrude>
				</Point>
			</Placemark>
			<Placemark>
				<name>Sunshine, AUSTRALIA: 15 hits</name>
				<styleUrl>#sphere_icon</styleUrl>
				<Point>
					<altitudeMode>relativeToGround</altitudeMode>
					<coordinates>144.833,-37.7833,625468.000000</coordinates>
					<extrude>1</extrude>
				</Point>
			</Placemark>
			<Placemark>
				<name>Surfers Paradise, AUSTRALIA: 3 hits</name>
				<styleUrl>#sphere_icon</styleUrl>
				<Point>
					<altitudeMode>relativeToGround</altitudeMode>
					<coordinates>153.433,-28.0,312734.000000</coordinates>
					<extrude>1</extrude>
				</Point>
			</Placemark>
			<Placemark>
				<name>Sutherland, AUSTRALIA: 3 hits</name>
				<styleUrl>#sphere_icon</styleUrl>
				<Point>
					<altitudeMode>relativeToGround</altitudeMode>
					<coordinates>151.067,-34.0333,312734.000000</coordinates>
					<extrude>1</extrude>
				</Point>
			</Placemark>
			<Placemark>
				<name>Sydney, AUSTRALIA: 4616 hits</name>
				<styleUrl>#sphere_icon</styleUrl>
				<Point>
					<altitudeMode>relativeToGround</altitudeMode>
					<coordinates>151.0,-34.0,1903415.000000</coordinates>
					<extrude>1</extrude>
				</Point>
			</Placemark>
			<Placemark>
				<name>Tamworth, AUSTRALIA: 14 hits</name>
				<styleUrl>#sphere_icon</styleUrl>
				<Point>
					<altitudeMode>relativeToGround</altitudeMode>
					<coordinates>150.933,-31.1,610909.000000</coordinates>
					<extrude>1</extrude>
				</Point>
			</Placemark>
			<Placemark>
				<name>Tara, AUSTRALIA: 1 hits</name>
				<styleUrl>#sphere_icon</styleUrl>
				<Point>
					<altitudeMode>relativeToGround</altitudeMode>
					<coordinates>150.467,-27.2833,156367.000000</coordinates>
					<extrude>1</extrude>
				</Point>
			</Placemark>
			<Placemark>
				<name>Taree, AUSTRALIA: 14 hits</name>
				<styleUrl>#sphere_icon</styleUrl>
				<Point>
					<altitudeMode>relativeToGround</altitudeMode>
					<coordinates>152.467,-31.9,610909.000000</coordinates>
					<extrude>1</extrude>
				</Point>
			</Placemark>
			<Placemark>
				<name>Tasmania, AUSTRALIA: 5 hits</name>
				<styleUrl>#sphere_icon</styleUrl>
				<Point>
					<altitudeMode>relativeToGround</altitudeMode>
					<coordinates>147.0,-42.0,404203.000000</coordinates>
					<extrude>1</extrude>
				</Point>
			</Placemark>
			<Placemark>
				<name>Temora, AUSTRALIA: 2 hits</name>
				<styleUrl>#sphere_icon</styleUrl>
				<Point>
					<altitudeMode>relativeToGround</altitudeMode>
					<coordinates>147.533,-34.4333,247835.000000</coordinates>
					<extrude>1</extrude>
				</Point>
			</Placemark>
			<Placemark>
				<name>Tenambit, AUSTRALIA: 9 hits</name>
				<styleUrl>#sphere_icon</styleUrl>
				<Point>
					<altitudeMode>relativeToGround</altitudeMode>
					<coordinates>151.617,-32.7333,519440.000000</coordinates>
					<extrude>1</extrude>
				</Point>
			</Placemark>
			<Placemark>
				<name>Terrey Hills, AUSTRALIA: 12 hits</name>
				<styleUrl>#sphere_icon</styleUrl>
				<Point>
					<altitudeMode>relativeToGround</altitudeMode>
					<coordinates>151.233,-33.6833,578626.000000</coordinates>
					<extrude>1</extrude>
				</Point>
			</Placemark>
			<Placemark>
				<name>Terrigal, AUSTRALIA: 229 hits</name>
				<styleUrl>#sphere_icon</styleUrl>
				<Point>
					<altitudeMode>relativeToGround</altitudeMode>
					<coordinates>151.45,-33.45,1226776.000000</coordinates>
					<extrude>1</extrude>
				</Point>
			</Placemark>
			<Placemark>
				<name>Toodyay, AUSTRALIA: 3 hits</name>
				<styleUrl>#sphere_icon</styleUrl>
				<Point>
					<altitudeMode>relativeToGround</altitudeMode>
					<coordinates>116.467,-31.55,312734.000000</coordinates>
					<extrude>1</extrude>
				</Point>
			</Placemark>
			<Placemark>
				<name>Toorak, AUSTRALIA: 4 hits</name>
				<styleUrl>#sphere_icon</styleUrl>
				<Point>
					<altitudeMode>relativeToGround</altitudeMode>
					<coordinates>141.8,-20.98,363073.000000</coordinates>
					<extrude>1</extrude>
				</Point>
			</Placemark>
			<Placemark>
				<name>Toowoomba, AUSTRALIA: 100 hits</name>
				<styleUrl>#sphere_icon</styleUrl>
				<Point>
					<altitudeMode>relativeToGround</altitudeMode>
					<coordinates>151.95,-27.55,1041125.000000</coordinates>
					<extrude>1</extrude>
				</Point>
			</Placemark>
			<Placemark>
				<name>Torquay, AUSTRALIA: 1 hits</name>
				<styleUrl>#sphere_icon</styleUrl>
				<Point>
					<altitudeMode>relativeToGround</altitudeMode>
					<coordinates>152.867,-25.2833,156367.000000</coordinates>
					<extrude>1</extrude>
				</Point>
			</Placemark>
			<Placemark>
				<name>Townsville, AUSTRALIA: 22 hits</name>
				<styleUrl>#sphere_icon</styleUrl>
				<Point>
					<altitudeMode>relativeToGround</altitudeMode>
					<coordinates>146.8,-19.25,707336.000000</coordinates>
					<extrude>1</extrude>
				</Point>
			</Placemark>
			<Placemark>
				<name>Tutye, AUSTRALIA: 2 hits</name>
				<styleUrl>#sphere_icon</styleUrl>
				<Point>
					<altitudeMode>relativeToGround</altitudeMode>
					<coordinates>141.483,-35.2167,247835.000000</coordinates>
					<extrude>1</extrude>
				</Point>
			</Placemark>
			<Placemark>
				<name>Tweed Heads, AUSTRALIA: 2 hits</name>
				<styleUrl>#sphere_icon</styleUrl>
				<Point>
					<altitudeMode>relativeToGround</altitudeMode>
					<coordinates>153.55,-28.1833,247835.000000</coordinates>
					<extrude>1</extrude>
				</Point>
			</Placemark>
			<Placemark>
				<name>Victor Harbor, AUSTRALIA: 20 hits</name>
				<styleUrl>#sphere_icon</styleUrl>
				<Point>
					<altitudeMode>relativeToGround</altitudeMode>
					<coordinates>138.617,-35.5667,686813.000000</coordinates>
					<extrude>1</extrude>
				</Point>
			</Placemark>
			<Placemark>
				<name>Villawood, AUSTRALIA: 8 hits</name>
				<styleUrl>#sphere_icon</styleUrl>
				<Point>
					<altitudeMode>relativeToGround</altitudeMode>
					<coordinates>150.967,-33.8833,495671.000000</coordinates>
					<extrude>1</extrude>
				</Point>
			</Placemark>
			<Placemark>
				<name>Wagga Wagga, AUSTRALIA: 5 hits</name>
				<styleUrl>#sphere_icon</styleUrl>
				<Point>
					<altitudeMode>relativeToGround</altitudeMode>
					<coordinates>147.367,-35.1167,404203.000000</coordinates>
					<extrude>1</extrude>
				</Point>
			</Placemark>
			<Placemark>
				<name>Warragul, AUSTRALIA: 2 hits</name>
				<styleUrl>#sphere_icon</styleUrl>
				<Point>
					<altitudeMode>relativeToGround</altitudeMode>
					<coordinates>145.933,-38.1667,247835.000000</coordinates>
					<extrude>1</extrude>
				</Point>
			</Placemark>
			<Placemark>
				<name>Warrnambool, AUSTRALIA: 6 hits</name>
				<styleUrl>#sphere_icon</styleUrl>
				<Point>
					<altitudeMode>relativeToGround</altitudeMode>
					<coordinates>142.483,-38.3833,438977.000000</coordinates>
					<extrude>1</extrude>
				</Point>
			</Placemark>
			<Placemark>
				<name>Westmead, AUSTRALIA: 2 hits</name>
				<styleUrl>#sphere_icon</styleUrl>
				<Point>
					<altitudeMode>relativeToGround</altitudeMode>
					<coordinates>150.983,-33.8167,247835.000000</coordinates>
					<extrude>1</extrude>
				</Point>
			</Placemark>
			<Placemark>
				<name>Whale Beach, AUSTRALIA: 27 hits</name>
				<styleUrl>#sphere_icon</styleUrl>
				<Point>
					<altitudeMode>relativeToGround</altitudeMode>
					<coordinates>151.333,-33.6167,751712.000000</coordinates>
					<extrude>1</extrude>
				</Point>
			</Placemark>
			<Placemark>
				<name>Whyalla, AUSTRALIA: 18 hits</name>
				<styleUrl>#sphere_icon</styleUrl>
				<Point>
					<altitudeMode>relativeToGround</altitudeMode>
					<coordinates>137.583,-33.0333,664236.000000</coordinates>
					<extrude>1</extrude>
				</Point>
			</Placemark>
			<Placemark>
				<name>Wollongong, AUSTRALIA: 34 hits</name>
				<styleUrl>#sphere_icon</styleUrl>
				<Point>
					<altitudeMode>relativeToGround</altitudeMode>
					<coordinates>150.9,-34.4167,802051.000000</coordinates>
					<extrude>1</extrude>
				</Point>
			</Placemark>
			<Placemark>
				<name>Woombye, AUSTRALIA: 9 hits</name>
				<styleUrl>#sphere_icon</styleUrl>
				<Point>
					<altitudeMode>relativeToGround</altitudeMode>
					<coordinates>152.967,-26.6667,519440.000000</coordinates>
					<extrude>1</extrude>
				</Point>
			</Placemark>
			<Placemark>
				<name>Woy Woy, AUSTRALIA: 6 hits</name>
				<styleUrl>#sphere_icon</styleUrl>
				<Point>
					<altitudeMode>relativeToGround</altitudeMode>
					<coordinates>151.333,-33.5,438977.000000</coordinates>
					<extrude>1</extrude>
				</Point>
			</Placemark>
			<Placemark>
				<name>Yandina, AUSTRALIA: 16 hits</name>
				<styleUrl>#sphere_icon</styleUrl>
				<Point>
					<altitudeMode>relativeToGround</altitudeMode>
					<coordinates>152.967,-26.5667,639144.000000</coordinates>
					<extrude>1</extrude>
				</Point>
			</Placemark>
		</Folder>
		<Folder>
			<name>AUSTRIA: 3151 hits, 75 cities</name>
			<Placemark>
				<name>Alland, AUSTRIA: 26 hits</name>
				<styleUrl>#sphere_icon</styleUrl>
				<Point>
					<altitudeMode>relativeToGround</altitudeMode>
					<coordinates>16.0833,48.05,743507.000000</coordinates>
					<extrude>1</extrude>
				</Point>
			</Placemark>
			<Placemark>
				<name>Anif, AUSTRIA: 11 hits</name>
				<styleUrl>#sphere_icon</styleUrl>
				<Point>
					<altitudeMode>relativeToGround</altitudeMode>
					<coordinates>13.0667,47.75,560570.000000</coordinates>
					<extrude>1</extrude>
				</Point>
			</Placemark>
			<Placemark>
				<name>Bad Vöslau, AUSTRIA: 5 hits</name>
				<styleUrl>#sphere_icon</styleUrl>
				<Point>
					<altitudeMode>relativeToGround</altitudeMode>
					<coordinates>16.2,47.9667,404203.000000</coordinates>
					<extrude>1</extrude>
				</Point>
			</Placemark>
			<Placemark>
				<name>Bleiberg-Nötsch, AUSTRIA: 49 hits</name>
				<styleUrl>#sphere_icon</styleUrl>
				<Point>
					<altitudeMode>relativeToGround</altitudeMode>
					<coordinates>13.6469,46.6244,882513.000000</coordinates>
					<extrude>1</extrude>
				</Point>
			</Placemark>
			<Placemark>
				<name>Bregenz, AUSTRIA: 1 hits</name>
				<styleUrl>#sphere_icon</styleUrl>
				<Point>
					<altitudeMode>relativeToGround</altitudeMode>
					<coordinates>9.7667,47.5,156367.000000</coordinates>
					<extrude>1</extrude>
				</Point>
			</Placemark>
			<Placemark>
				<name>Dornbirn, AUSTRIA: 22 hits</name>
				<styleUrl>#sphere_icon</styleUrl>
				<Point>
					<altitudeMode>relativeToGround</altitudeMode>
					<coordinates>9.7333,47.4167,707336.000000</coordinates>
					<extrude>1</extrude>
				</Point>
			</Placemark>
			<Placemark>
				<name>Edelschrott, AUSTRIA: 1 hits</name>
				<styleUrl>#sphere_icon</styleUrl>
				<Point>
					<altitudeMode>relativeToGround</altitudeMode>
					<coordinates>15.05,47.0167,156367.000000</coordinates>
					<extrude>1</extrude>
				</Point>
			</Placemark>
			<Placemark>
				<name>Eisenstadt, AUSTRIA: 57 hits</name>
				<styleUrl>#sphere_icon</styleUrl>
				<Point>
					<altitudeMode>relativeToGround</altitudeMode>
					<coordinates>16.5167,47.85,915995.000000</coordinates>
					<extrude>1</extrude>
				</Point>
			</Placemark>
			<Placemark>
				<name>Enns, AUSTRIA: 4 hits</name>
				<styleUrl>#sphere_icon</styleUrl>
				<Point>
					<altitudeMode>relativeToGround</altitudeMode>
					<coordinates>14.4667,48.2,363073.000000</coordinates>
					<extrude>1</extrude>
				</Point>
			</Placemark>
			<Placemark>
				<name>Feldbach, AUSTRIA: 1 hits</name>
				<styleUrl>#sphere_icon</styleUrl>
				<Point>
					<altitudeMode>relativeToGround</altitudeMode>
					<coordinates>15.8883,46.9531,156367.000000</coordinates>
					<extrude>1</extrude>
				</Point>
			</Placemark>
			<Placemark>
				<name>Feldkirch, AUSTRIA: 1 hits</name>
				<styleUrl>#sphere_icon</styleUrl>
				<Point>
					<altitudeMode>relativeToGround</altitudeMode>
					<coordinates>9.6,47.2333,156367.000000</coordinates>
					<extrude>1</extrude>
				</Point>
			</Placemark>
			<Placemark>
				<name>Frankenberg, AUSTRIA: 2 hits</name>
				<styleUrl>#sphere_icon</styleUrl>
				<Point>
					<altitudeMode>relativeToGround</altitudeMode>
					<coordinates>14.55,46.6667,247835.000000</coordinates>
					<extrude>1</extrude>
				</Point>
			</Placemark>
			<Placemark>
				<name>Frauenkirchen, AUSTRIA: 6 hits</name>
				<styleUrl>#sphere_icon</styleUrl>
				<Point>
					<altitudeMode>relativeToGround</altitudeMode>
					<coordinates>16.9167,47.8333,438977.000000</coordinates>
					<extrude>1</extrude>
				</Point>
			</Placemark>
			<Placemark>
				<name>Freistadt, AUSTRIA: 6 hits</name>
				<styleUrl>#sphere_icon</styleUrl>
				<Point>
					<altitudeMode>relativeToGround</altitudeMode>
					<coordinates>14.5,48.5,438977.000000</coordinates>
					<extrude>1</extrude>
				</Point>
			</Placemark>
			<Placemark>
				<name>Friedberg, AUSTRIA: 6 hits</name>
				<styleUrl>#sphere_icon</styleUrl>
				<Point>
					<altitudeMode>relativeToGround</altitudeMode>
					<coordinates>16.05,47.4333,438977.000000</coordinates>
					<extrude>1</extrude>
				</Point>
			</Placemark>
			<Placemark>
				<name>Gleisdorf, AUSTRIA: 1 hits</name>
				<styleUrl>#sphere_icon</styleUrl>
				<Point>
					<altitudeMode>relativeToGround</altitudeMode>
					<coordinates>15.7167,47.1,156367.000000</coordinates>
					<extrude>1</extrude>
				</Point>
			</Placemark>
			<Placemark>
				<name>Gols, AUSTRIA: 1 hits</name>
				<styleUrl>#sphere_icon</styleUrl>
				<Point>
					<altitudeMode>relativeToGround</altitudeMode>
					<coordinates>16.9,47.8833,156367.000000</coordinates>
					<extrude>1</extrude>
				</Point>
			</Placemark>
			<Placemark>
				<name>Gosau, AUSTRIA: 120 hits</name>
				<styleUrl>#sphere_icon</styleUrl>
				<Point>
					<altitudeMode>relativeToGround</altitudeMode>
					<coordinates>13.5167,47.5667,1081882.000000</coordinates>
					<extrude>1</extrude>
				</Point>
			</Placemark>
			<Placemark>
				<name>Gratkorn, AUSTRIA: 8 hits</name>
				<styleUrl>#sphere_icon</styleUrl>
				<Point>
					<altitudeMode>relativeToGround</altitudeMode>
					<coordinates>15.35,47.1333,495671.000000</coordinates>
					<extrude>1</extrude>
				</Point>
			</Placemark>
			<Placemark>
				<name>Graz, AUSTRIA: 249 hits</name>
				<styleUrl>#sphere_icon</styleUrl>
				<Point>
					<altitudeMode>relativeToGround</altitudeMode>
					<coordinates>15.45,47.0667,1245586.000000</coordinates>
					<extrude>1</extrude>
				</Point>
			</Placemark>
			<Placemark>
				<name>Grossraming, AUSTRIA: 2 hits</name>
				<styleUrl>#sphere_icon</styleUrl>
				<Point>
					<altitudeMode>relativeToGround</altitudeMode>
					<coordinates>14.55,47.8833,247835.000000</coordinates>
					<extrude>1</extrude>
				</Point>
			</Placemark>
			<Placemark>
				<name>Haag, AUSTRIA: 3 hits</name>
				<styleUrl>#sphere_icon</styleUrl>
				<Point>
					<altitudeMode>relativeToGround</altitudeMode>
					<coordinates>15.9,46.85,312734.000000</coordinates>
					<extrude>1</extrude>
				</Point>
			</Placemark>
			<Placemark>
				<name>Hallein, AUSTRIA: 5 hits</name>
				<styleUrl>#sphere_icon</styleUrl>
				<Point>
					<altitudeMode>relativeToGround</altitudeMode>
					<coordinates>13.1,47.6833,404203.000000</coordinates>
					<extrude>1</extrude>
				</Point>
			</Placemark>
			<Placemark>
				<name>Hollabrunn, AUSTRIA: 3 hits</name>
				<styleUrl>#sphere_icon</styleUrl>
				<Point>
					<altitudeMode>relativeToGround</altitudeMode>
					<coordinates>16.0833,47.6167,312734.000000</coordinates>
					<extrude>1</extrude>
				</Point>
			</Placemark>
			<Placemark>
				<name>Horn, AUSTRIA: 3 hits</name>
				<styleUrl>#sphere_icon</styleUrl>
				<Point>
					<altitudeMode>relativeToGround</altitudeMode>
					<coordinates>15.65,48.65,312734.000000</coordinates>
					<extrude>1</extrude>
				</Point>
			</Placemark>
			<Placemark>
				<name>Innsbruck, AUSTRIA: 277 hits</name>
				<styleUrl>#sphere_icon</styleUrl>
				<Point>
					<altitudeMode>relativeToGround</altitudeMode>
					<coordinates>11.4,47.2667,1269535.000000</coordinates>
					<extrude>1</extrude>
				</Point>
			</Placemark>