<?xml version="1.0" encoding="UTF-8"?>
<kml xmlns="http://earth.google.com/kml/2.1">
<Document>
	<name>1318373 server hits, 13213 cities, 187 countries</name>
	<Style id="sphere_normal">
		<IconStyle>
			<scale>.3</scale>
			<Icon>
				<href>http://siggy.homelinux.org/kml/sphere_white.png</href>
			</Icon>
		</IconStyle>
		<LabelStyle>
			<scale>0</scale>
		</LabelStyle>
		<LineStyle>
			<color>7fffffff</color>
			<width>1</width>
		</LineStyle>
	</Style>
	<Style id="sphere_highlight">
		<IconStyle>
			<scale>.6</scale>
			<Icon>
				<href>http://siggy.homelinux.org/kml/sphere_gold.png</href>
			</Icon>
		</IconStyle>
		<LabelStyle>
			<scale>1</scale>
		</LabelStyle>
		<LineStyle>
			<color>7f00ffff</color>
			<width>10</width>
		</LineStyle>
	</Style>
	<StyleMap id="sphere_icon">
		<Pair>
			<key>normal</key>
			<styleUrl>#sphere_normal</styleUrl>
		</Pair>
		<Pair>
			<key>highlight</key>
			<styleUrl>#sphere_highlight</styleUrl>
		</Pair>
	</StyleMap>
	<Folder>
		<name>1318373 server hits, 13213 cities, 187 countries</name>
		<Folder>
			<name>AFGHANISTAN: 811 hits, 39 cities</name>
			<Placemark>
				<name>Abdul, AFGHANISTAN: 2 hits</name>
				<styleUrl>#sphere_icon</styleUrl>
				<Point>
					<altitudeMode>relativeToGround</altitudeMode>
					<coordinates>64.3,31.6833,245391.000000</coordinates>
					<extrude>1</extrude>
				</Point>
			</Placemark>
			<Placemark>
				<name>Afghanistan, AFGHANISTAN: 2 hits</name>
				<styleUrl>#sphere_icon</styleUrl>
				<Point>
					<altitudeMode>relativeToGround</altitudeMode>
					<coordinates>65.0,33.0,245391.000000</coordinates>
					<extrude>1</extrude>
				</Point>
			</Placemark>
			<Placemark>
				<name>Aw Naray, AFGHANISTAN: 21 hits</name>
				<styleUrl>#sphere_icon</styleUrl>
				<Point>
					<altitudeMode>relativeToGround</altitudeMode>
					<coordinates>68.6167,33.85,690431.000000</coordinates>
					<extrude>1</extrude>
				</Point>
			</Placemark>
			<Placemark>
				<name>Bagat ƒa¦t, AFGHANISTAN: 1 hits</name>
				<styleUrl>#sphere_icon</styleUrl>
				<Point>
					<altitudeMode>relativeToGround</altitudeMode>
					<coordinates>63.9167,30.45,154824.000000</coordinates>
					<extrude>1</extrude>
				</Point>
			</Placemark>
			<Placemark>
				<name>Bagråm, AFGHANISTAN: 104 hits</name>
				<styleUrl>#sphere_icon</styleUrl>
				<Point>
					<altitudeMode>relativeToGround</altitudeMode>
					<coordinates>69.2833,34.9667,1039532.000000</coordinates>
					<extrude>1</extrude>
				</Point>
			</Placemark>
			<Placemark>
				<name>Bakhårå, AFGHANISTAN: 8 hits</name>
				<styleUrl>#sphere_icon</styleUrl>
				<Point>
					<altitudeMode>relativeToGround</altitudeMode>
					<coordinates>67.7,33.5167,490783.000000</coordinates>
					<extrude>1</extrude>
				</Point>
			</Placemark>
			<Placemark>
				<name>Bamiyan, AFGHANISTAN: 2 hits</name>
				<styleUrl>#sphere_icon</styleUrl>
				<Point>
					<altitudeMode>relativeToGround</altitudeMode>
					<coordinates>67.8167,34.8167,245391.000000</coordinates>
					<extrude>1</extrude>
				</Point>
			</Placemark>
			<Placemark>
				<name>Bulak, AFGHANISTAN: 23 hits</name>
				<styleUrl>#sphere_icon</styleUrl>
				<Point>
					<altitudeMode>relativeToGround</altitudeMode>
					<coordinates>62.7833,32.2,709866.000000</coordinates>
					<extrude>1</extrude>
				</Point>
			</Placemark>
			<Placemark>
				<name>Båzår, AFGHANISTAN: 2 hits</name>
				<styleUrl>#sphere_icon</styleUrl>
				<Point>
					<altitudeMode>relativeToGround</altitudeMode>
					<coordinates>69.5,35.95,245391.000000</coordinates>
					<extrude>1</extrude>
				</Point>
			</Placemark>
			<Placemark>
				<name>Bå£åmtðy, AFGHANISTAN: 2 hits</name>
				<styleUrl>#sphere_icon</styleUrl>
				<Point>
					<altitudeMode>relativeToGround</altitudeMode>
					<coordinates>66.65,32.65,245391.000000</coordinates>
					<extrude>1</extrude>
				</Point>
			</Placemark>
			<Placemark>
				<name>Cabal, AFGHANISTAN: 2 hits</name>
				<styleUrl>#sphere_icon</styleUrl>
				<Point>
					<altitudeMode>relativeToGround</altitudeMode>
					<coordinates>66.2167,34.5833,245391.000000</coordinates>
					<extrude>1</extrude>
				</Point>
			</Placemark>
			<Placemark>
				<name>Cabul, AFGHANISTAN: 9 hits</name>
				<styleUrl>#sphere_icon</styleUrl>
				<Point>
					<altitudeMode>relativeToGround</altitudeMode>
					<coordinates>69.1833,34.5167,514317.000000</coordinates>
					<extrude>1</extrude>
				</Point>
			</Placemark>
			<Placemark>
				<name>Candahar, AFGHANISTAN: 2 hits</name>
				<styleUrl>#sphere_icon</styleUrl>
				<Point>
					<altitudeMode>relativeToGround</altitudeMode>
					<coordinates>65.7167,31.6167,245391.000000</coordinates>
					<extrude>1</extrude>
				</Point>
			</Placemark>
			<Placemark>
				<name>Catr¤y, AFGHANISTAN: 54 hits</name>
				<styleUrl>#sphere_icon</styleUrl>
				<Point>
					<altitudeMode>relativeToGround</altitudeMode>
					<coordinates>68.2667,32.1167,895098.000000</coordinates>
					<extrude>1</extrude>
				</Point>
			</Placemark>
			<Placemark>
				<name>Caubul, AFGHANISTAN: 123 hits</name>
				<styleUrl>#sphere_icon</styleUrl>
				<Point>
					<altitudeMode>relativeToGround</altitudeMode>
					<coordinates>69.1833,34.5167,1076683.000000</coordinates>
					<extrude>1</extrude>
				</Point>
			</Placemark>
			<Placemark>
				<name>Caw¦ah, AFGHANISTAN: 2 hits</name>
				<styleUrl>#sphere_icon</styleUrl>
				<Point>
					<altitudeMode>relativeToGround</altitudeMode>
					<coordinates>65.7333,34.6333,245391.000000</coordinates>
					<extrude>1</extrude>
				</Point>
			</Placemark>
			<Placemark>
				<name>Cå balå, AFGHANISTAN: 1 hits</name>
				<styleUrl>#sphere_icon</styleUrl>
				<Point>
					<altitudeMode>relativeToGround</altitudeMode>
					<coordinates>66.9333,34.3667,154824.000000</coordinates>
					<extrude>1</extrude>
				</Point>
			</Placemark>
			<Placemark>
				<name>Dab Kalay, AFGHANISTAN: 1 hits</name>
				<styleUrl>#sphere_icon</styleUrl>
				<Point>
					<altitudeMode>relativeToGround</altitudeMode>
					<coordinates>66.1,32.5333,154824.000000</coordinates>
					<extrude>1</extrude>
				</Point>
			</Placemark>
			<Placemark>
				<name>Daba , AFGHANISTAN: 2 hits</name>
				<styleUrl>#sphere_icon</styleUrl>
				<Point>
					<altitudeMode>relativeToGround</altitudeMode>
					<coordinates>68.25,33.0333,245391.000000</coordinates>
					<extrude>1</extrude>
				</Point>
			</Placemark>
			<Placemark>
				<name>Dombå', AFGHANISTAN: 1 hits</name>
				<styleUrl>#sphere_icon</styleUrl>
				<Point>
					<altitudeMode>relativeToGround</altitudeMode>
					<coordinates>68.95,34.95,154824.000000</coordinates>
					<extrude>1</extrude>
				</Point>
			</Placemark>
			<Placemark>
				<name>Kaboul, AFGHANISTAN: 170 hits</name>
				<styleUrl>#sphere_icon</styleUrl>
				<Point>
					<altitudeMode>relativeToGround</altitudeMode>
					<coordinates>69.1833,34.5167,1148468.000000</coordinates>
					<extrude>1</extrude>
				</Point>
			</Placemark>
			<Placemark>
				<name>Kabul, AFGHANISTAN: 178 hits</name>
				<styleUrl>#sphere_icon</styleUrl>
				<Point>
					<altitudeMode>relativeToGround</altitudeMode>
					<coordinates>69.1833,34.5167,1158681.000000</coordinates>
					<extrude>1</extrude>
				</Point>
			</Placemark>
			<Placemark>
				<name>Kandhar, AFGHANISTAN: 2 hits</name>
				<styleUrl>#sphere_icon</styleUrl>
				<Point>
					<altitudeMode>relativeToGround</altitudeMode>
					<coordinates>65.7167,31.6167,245391.000000</coordinates>
					<extrude>1</extrude>
				</Point>
			</Placemark>
			<Placemark>
				<name>Kha bolåq, AFGHANISTAN: 1 hits</name>
				<styleUrl>#sphere_icon</styleUrl>
				<Point>
					<altitudeMode>relativeToGround</altitudeMode>
					<coordinates>68.15,33.2833,154824.000000</coordinates>
					<extrude>1</extrude>
				</Point>
			</Placemark>
			<Placemark>
				<name>Kocokak, AFGHANISTAN: 3 hits</name>
				<styleUrl>#sphere_icon</styleUrl>
				<Point>
					<altitudeMode>relativeToGround</altitudeMode>
					<coordinates>67.0667,35.0,309649.000000</coordinates>
					<extrude>1</extrude>
				</Point>
			</Placemark>
			<Placemark>
				<name>Konduz, AFGHANISTAN: 29 hits</name>
				<styleUrl>#sphere_icon</styleUrl>
				<Point>
					<altitudeMode>relativeToGround</altitudeMode>
					<coordinates>68.8667,36.7167,759709.000000</coordinates>
					<extrude>1</extrude>
				</Point>
			</Placemark>
			<Placemark>
				<name>Kåbola, AFGHANISTAN: 2 hits</name>
				<styleUrl>#sphere_icon</styleUrl>
				<Point>
					<altitudeMode>relativeToGround</altitudeMode>
					<coordinates>66.4,32.1833,245391.000000</coordinates>
					<extrude>1</extrude>
				</Point>
			</Placemark>
			<Placemark>
				<name>Kåbuli, AFGHANISTAN: 2 hits</name>
				<styleUrl>#sphere_icon</styleUrl>
				<Point>
					<altitudeMode>relativeToGround</altitudeMode>
					<coordinates>68.3333,33.4333,245391.000000</coordinates>
					<extrude>1</extrude>
				</Point>
			</Placemark>
			<Placemark>
				<name>Lela, AFGHANISTAN: 1 hits</name>
				<styleUrl>#sphere_icon</styleUrl>
				<Point>
					<altitudeMode>relativeToGround</altitudeMode>
					<coordinates>67.1333,35.6167,154824.000000</coordinates>
					<extrude>1</extrude>
				</Point>
			</Placemark>
			<Placemark>
				<name>Mahmud-e, AFGHANISTAN: 4 hits</name>
				<styleUrl>#sphere_icon</styleUrl>
				<Point>
					<altitudeMode>relativeToGround</altitudeMode>
					<coordinates>69.3167,35.0167,359492.000000</coordinates>
					<extrude>1</extrude>
				</Point>
			</Placemark>
			<Placemark>
				<name>Maimanah, AFGHANISTAN: 17 hits</name>
				<styleUrl>#sphere_icon</styleUrl>
				<Point>
					<altitudeMode>relativeToGround</altitudeMode>
					<coordinates>64.7833,35.9167,645608.000000</coordinates>
					<extrude>1</extrude>
				</Point>
			</Placemark>
			<Placemark>
				<name>Peshåwar, AFGHANISTAN: 2 hits</name>
				<styleUrl>#sphere_icon</styleUrl>
				<Point>
					<altitudeMode>relativeToGround</altitudeMode>
					<coordinates>71.35,35.8333,245391.000000</coordinates>
					<extrude>1</extrude>
				</Point>
			</Placemark>
			<Placemark>
				<name>Robåt, AFGHANISTAN: 3 hits</name>
				<styleUrl>#sphere_icon</styleUrl>
				<Point>
					<altitudeMode>relativeToGround</altitudeMode>
					<coordinates>60.9667,29.8333,309649.000000</coordinates>
					<extrude>1</extrude>
				</Point>
			</Placemark>
			<Placemark>
				<name>Ruti, AFGHANISTAN: 4 hits</name>
				<styleUrl>#sphere_icon</styleUrl>
				<Point>
					<altitudeMode>relativeToGround</altitudeMode>
					<coordinates>63.6833,34.1167,359492.000000</coordinates>
					<extrude>1</extrude>
				</Point>
			</Placemark>
			<Placemark>
				<name>Takya, AFGHANISTAN: 5 hits</name>
				<styleUrl>#sphere_icon</styleUrl>
				<Point>
					<altitudeMode>relativeToGround</altitudeMode>
					<coordinates>68.6667,33.9,400216.000000</coordinates>
					<extrude>1</extrude>
				</Point>
			</Placemark>
			<Placemark>
				<name>Ye gana, AFGHANISTAN: 3 hits</name>
				<styleUrl>#sphere_icon</styleUrl>
				<Point>
					<altitudeMode>relativeToGround</altitudeMode>
					<coordinates>68.7667,33.6333,309649.000000</coordinates>
					<extrude>1</extrude>
				</Point>
			</Placemark>
			<Placemark>
				<name>€¤ge awån Gha , AFGHANISTAN: 8 hits</name>
				<styleUrl>#sphere_icon</styleUrl>
				<Point>
					<altitudeMode>relativeToGround</altitudeMode>
					<coordinates>64.4333,32.9833,490783.000000</coordinates>
					<extrude>1</extrude>
				</Point>
			</Placemark>
			<Placemark>
				<name>†å kay, AFGHANISTAN: 6 hits</name>
				<styleUrl>#sphere_icon</styleUrl>
				<Point>
					<altitudeMode>relativeToGround</altitudeMode>
					<coordinates>70.35,34.0667,434648.000000</coordinates>
					<extrude>1</extrude>
				</Point>
			</Placemark>
			<Placemark>
				<name>Åq-i-¯Åb£ul, AFGHANISTAN: 7 hits</name>
				<styleUrl>#sphere_icon</styleUrl>
				<Point>
					<altitudeMode>relativeToGround</altitudeMode>
					<coordinates>64.75,35.6,464474.000000</coordinates>
					<extrude>1</extrude>
				</Point>
			</Placemark>
		</Folder>
		<Folder>
			<name>ALBANIA: 425 hits, 16 cities</name>
			<Placemark>
				<name>Albania, ALBANIA: 11 hits</name>
				<styleUrl>#sphere_icon</styleUrl>
				<Point>
					<altitudeMode>relativeToGround</altitudeMode>
					<coordinates>20.0,41.0,555041.000000</coordinates>
					<extrude>1</extrude>
				</Point>
			</Placemark>
			<Placemark>
				<name>Dreno, ALBANIA: 11 hits</name>
				<styleUrl>#sphere_icon</styleUrl>
				<Point>
					<altitudeMode>relativeToGround</altitudeMode>
					<coordinates>20.3667,41.4333,555041.000000</coordinates>
					<extrude>1</extrude>
				</Point>
			</Placemark>
			<Placemark>
				<name>Dures, ALBANIA: 7 hits</name>
				<styleUrl>#sphere_icon</styleUrl>
				<Point>
					<altitudeMode>relativeToGround</altitudeMode>
					<coordinates>19.4333,41.3167,464474.000000</coordinates>
					<extrude>1</extrude>
				</Point>
			</Placemark>
			<Placemark>
				<name>Durrësi, ALBANIA: 5 hits</name>
				<styleUrl>#sphere_icon</styleUrl>
				<Point>
					<altitudeMode>relativeToGround</altitudeMode>
					<coordinates>19.4333,41.3167,400216.000000</coordinates>
					<extrude>1</extrude>
				</Point>
			</Placemark>
			<Placemark>
				<name>Katundi i Ri, ALBANIA: 74 hits</name>
				<styleUrl>#sphere_icon</styleUrl>
				<Point>
					<altitudeMode>relativeToGround</altitudeMode>
					<coordinates>20.0833,41.1,964376.000000</coordinates>
					<extrude>1</extrude>
				</Point>
			</Placemark>
			<Placemark>
				<name>Kosova, ALBANIA: 2 hits</name>
				<styleUrl>#sphere_icon</styleUrl>
				<Point>
					<altitudeMode>relativeToGround</altitudeMode>
					<coordinates>20.3833,40.3,245391.000000</coordinates>
					<extrude>1</extrude>
				</Point>
			</Placemark>
			<Placemark>
				<name>Lalari, ALBANIA: 2 hits</name>
				<styleUrl>#sphere_icon</styleUrl>
				<Point>
					<altitudeMode>relativeToGround</altitudeMode>
					<coordinates>19.6333,40.6667,245391.000000</coordinates>
					<extrude>1</extrude>
				</Point>
			</Placemark>
			<Placemark>
				<name>Lobç, ALBANIA: 109 hits</name>
				<styleUrl>#sphere_icon</styleUrl>
				<Point>
					<altitudeMode>relativeToGround</altitudeMode>
					<coordinates>19.5094,42.1986,1049923.000000</coordinates>
					<extrude>1</extrude>
				</Point>
			</Placemark>
			<Placemark>
				<name>Pejë, ALBANIA: 11 hits</name>
				<styleUrl>#sphere_icon</styleUrl>
				<Point>
					<altitudeMode>relativeToGround</altitudeMode>
					<coordinates>19.9,42.3667,555041.000000</coordinates>
					<extrude>1</extrude>
				</Point>
			</Placemark>
			<Placemark>
				<name>Shkodra, ALBANIA: 1 hits</name>
				<styleUrl>#sphere_icon</styleUrl>
				<Point>
					<altitudeMode>relativeToGround</altitudeMode>
					<coordinates>19.5131,42.0675,154824.000000</coordinates>
					<extrude>1</extrude>
				</Point>
			</Placemark>
			<Placemark>
				<name>Tirana, ALBANIA: 69 hits</name>
				<styleUrl>#sphere_icon</styleUrl>
				<Point>
					<altitudeMode>relativeToGround</altitudeMode>
					<coordinates>19.8333,41.3333,948966.000000</coordinates>
					<extrude>1</extrude>
				</Point>
			</Placemark>
			<Placemark>
				<name>Tirane, ALBANIA: 25 hits</name>
				<styleUrl>#sphere_icon</styleUrl>
				<Point>
					<altitudeMode>relativeToGround</altitudeMode>
					<coordinates>19.8667,41.3167,727745.000000</coordinates>
					<extrude>1</extrude>
				</Point>
			</Placemark>
			<Placemark>
				<name>Tiranë, ALBANIA: 90 hits</name>
				<styleUrl>#sphere_icon</styleUrl>
				<Point>
					<altitudeMode>relativeToGround</altitudeMode>
					<coordinates>19.8333,41.3333,1007569.000000</coordinates>
					<extrude>1</extrude>
				</Point>
			</Placemark>
			<Placemark>
				<name>Trenë, ALBANIA: 1 hits</name>
				<styleUrl>#sphere_icon</styleUrl>
				<Point>
					<altitudeMode>relativeToGround</altitudeMode>
					<coordinates>20.4333,41.65,154824.000000</coordinates>
					<extrude>1</extrude>
				</Point>
			</Placemark>
			<Placemark>
				<name>Truni, ALBANIA: 6 hits</name>
				<styleUrl>#sphere_icon</styleUrl>
				<Point>
					<altitudeMode>relativeToGround</altitudeMode>
					<coordinates>20.1714,42.1753,434648.000000</coordinates>
					<extrude>1</extrude>
				</Point>
			</Placemark>
			<Placemark>
				<name>Zherka, ALBANIA: 1 hits</name>
				<styleUrl>#sphere_icon</styleUrl>
				<Point>
					<altitudeMode>relativeToGround</altitudeMode>
					<coordinates>20.225,42.3225,154824.000000</coordinates>
					<extrude>1</extrude>
				</Point>
			</Placemark>
		</Folder>
		<Folder>
			<name>ALGERIA: 420 hits, 15 cities</name>
			<Placemark>
				<name>Alger, ALGERIA: 210 hits</name>
				<styleUrl>#sphere_icon</styleUrl>
				<Point>
					<altitudeMode>relativeToGround</altitudeMode>
					<coordinates>3.0506,36.7631,1195419.000000</coordinates>
					<extrude>1</extrude>
				</Point>
			</Placemark>
			<Placemark>
				<name>Algeri, ALGERIA: 13 hits</name>
				<styleUrl>#sphere_icon</styleUrl>
				<Point>
					<altitudeMode>relativeToGround</altitudeMode>
					<coordinates>3.0506,36.7631,589473.000000</coordinates>
					<extrude>1</extrude>
				</Point>
			</Placemark>
			<Placemark>
				<name>Algeria, ALGERIA: 7 hits</name>
				<styleUrl>#sphere_icon</styleUrl>
				<Point>
					<altitudeMode>relativeToGround</altitudeMode>
					<coordinates>3.0,28.0,464474.000000</coordinates>
					<extrude>1</extrude>
				</Point>
			</Placemark>
			<Placemark>
				<name>Algier, ALGERIA: 2 hits</name>
				<styleUrl>#sphere_icon</styleUrl>
				<Point>
					<altitudeMode>relativeToGround</altitudeMode>
					<coordinates>3.0506,36.7631,245391.000000</coordinates>
					<extrude>1</extrude>
				</Point>
			</Placemark>
			<Placemark>
				<name>Algiers, ALGERIA: 158 hits</name>
				<styleUrl>#sphere_icon</styleUrl>
				<Point>
					<altitudeMode>relativeToGround</altitudeMode>
					<coordinates>3.0506,36.7631,1132216.000000</coordinates>
					<extrude>1</extrude>
				</Point>
			</Placemark>
			<Placemark>
				<name>Annaba, ALGERIA: 2 hits</name>
				<styleUrl>#sphere_icon</styleUrl>
				<Point>
					<altitudeMode>relativeToGround</altitudeMode>
					<coordinates>7.8128,36.8289,245391.000000</coordinates>
					<extrude>1</extrude>
				</Point>
			</Placemark>
			<Placemark>
				<name>Blida, ALGERIA: 2 hits</name>
				<styleUrl>#sphere_icon</styleUrl>
				<Point>
					<altitudeMode>relativeToGround</altitudeMode>
					<coordinates>2.8333,36.4667,245391.000000</coordinates>
					<extrude>1</extrude>
				</Point>
			</Placemark>
			<Placemark>
				<name>Bou Ismail, ALGERIA: 1 hits</name>
				<styleUrl>#sphere_icon</styleUrl>
				<Point>
					<altitudeMode>relativeToGround</altitudeMode>
					<coordinates>2.9167,36.8,154824.000000</coordinates>
					<extrude>1</extrude>
				</Point>
			</Placemark>
			<Placemark>
				<name>Bou Ismaïl, ALGERIA: 6 hits</name>
				<styleUrl>#sphere_icon</styleUrl>
				<Point>
					<altitudeMode>relativeToGround</altitudeMode>
					<coordinates>2.6833,36.6333,434648.000000</coordinates>
					<extrude>1</extrude>
				</Point>
			</Placemark>
			<Placemark>
				<name>Bouira, ALGERIA: 2 hits</name>
				<styleUrl>#sphere_icon</styleUrl>
				<Point>
					<altitudeMode>relativeToGround</altitudeMode>
					<coordinates>5.2783,36.2156,245391.000000</coordinates>
					<extrude>1</extrude>
				</Point>
			</Placemark>
			<Placemark>
				<name>Cheraga, ALGERIA: 1 hits</name>
				<styleUrl>#sphere_icon</styleUrl>
				<Point>
					<altitudeMode>relativeToGround</altitudeMode>
					<coordinates>1.8167,36.4,154824.000000</coordinates>
					<extrude>1</extrude>
				</Point>
			</Placemark>
			<Placemark>
				<name>Constantine, ALGERIA: 1 hits</name>
				<styleUrl>#sphere_icon</styleUrl>
				<Point>
					<altitudeMode>relativeToGround</altitudeMode>
					<coordinates>6.6147,36.365,154824.000000</coordinates>
					<extrude>1</extrude>
				</Point>
			</Placemark>
			<Placemark>
				<name>Ghardaïa, ALGERIA: 10 hits</name>
				<styleUrl>#sphere_icon</styleUrl>
				<Point>
					<altitudeMode>relativeToGround</altitudeMode>
					<coordinates>3.6667,32.4833,535606.000000</coordinates>
					<extrude>1</extrude>
				</Point>
			</Placemark>
			<Placemark>
				<name>Oran, ALGERIA: 1 hits</name>
				<styleUrl>#sphere_icon</styleUrl>
				<Point>
					<altitudeMode>relativeToGround</altitudeMode>
					<coordinates>-0.6417,35.6911,154824.000000</coordinates>
					<extrude>1</extrude>
				</Point>
			</Placemark>
			<Placemark>
				<name>Tizi Uzu, ALGERIA: 4 hits</name>
				<styleUrl>#sphere_icon</styleUrl>
				<Point>
					<altitudeMode>relativeToGround</altitudeMode>
					<coordinates>4.0497,36.7169,359492.000000</coordinates>
					<extrude>1</extrude>
				</Point>
			</Placemark>
		</Folder>
		<Folder>
			<name>ANDORRA: 100 hits, 3 cities</name>
			<Placemark>
				<name>Andorra La Vella, ANDORRA: 7 hits</name>
				<styleUrl>#sphere_icon</styleUrl>
				<Point>
					<altitudeMode>relativeToGround</altitudeMode>
					<coordinates>1.5167,42.5,464474.000000</coordinates>
					<extrude>1</extrude>
				</Point>
			</Placemark>
			<Placemark>
				<name>Andorra, ANDORRA: 75 hits</name>
				<styleUrl>#sphere_icon</styleUrl>
				<Point>
					<altitudeMode>relativeToGround</altitudeMode>
					<coordinates>1.5167,42.5,967335.000000</coordinates>
					<extrude>1</extrude>
				</Point>
			</Placemark>
			<Placemark>
				<name>Arinsal, ANDORRA: 18 hits</name>
				<styleUrl>#sphere_icon</styleUrl>
				<Point>
					<altitudeMode>relativeToGround</altitudeMode>
					<coordinates>1.4833,42.5667,657685.000000</coordinates>
					<extrude>1</extrude>
				</Point>
			</Placemark>
		</Folder>
		<Folder>
			<name>ANGOLA: 14 hits, 3 cities</name>
			<Placemark>
				<name>Cabo Ledo, ANGOLA: 9 hits</name>
				<styleUrl>#sphere_icon</styleUrl>
				<Point>
					<altitudeMode>relativeToGround</altitudeMode>
					<coordinates>13.2333,-9.6667,514317.000000</coordinates>
					<extrude>1</extrude>
				</Point>
			</Placemark>
			<Placemark>
				<name>Luanda, ANGOLA: 4 hits</name>
				<styleUrl>#sphere_icon</styleUrl>
				<Point>
					<altitudeMode>relativeToGround</altitudeMode>
					<coordinates>14.8167,-7.05,359492.000000</coordinates>
					<extrude>1</extrude>
				</Point>
			</Placemark>
			<Placemark>
				<name>Samba, ANGOLA: 1 hits</name>
				<styleUrl>#sphere_icon</styleUrl>
				<Point>
					<altitudeMode>relativeToGround</altitudeMode>
					<coordinates>19.0667,-12.25,154824.000000</coordinates>
					<extrude>1</extrude>
				</Point>
			</Placemark>
		</Folder>
		<Folder>
			<name>ANTIGUA AND BARBUDA: 3 hits, 1 cities</name>
			<Placemark>
				<name>Saint John's, ANTIGUA AND BARBUDA: 3 hits</name>
				<styleUrl>#sphere_icon</styleUrl>
				<Point>
					<altitudeMode>relativeToGround</altitudeMode>
					<coordinates>-61.85,17.1167,309649.000000</coordinates>
					<extrude>1</extrude>
				</Point>
			</Placemark>
		</Folder>
		<Folder>
			<name>ARGENTINA: 7372 hits, 68 cities</name>
			<Placemark>
				<name>Almirante Brown, ARGENTINA: 3 hits</name>
				<styleUrl>#sphere_icon</styleUrl>
				<Point>
					<altitudeMode>relativeToGround</altitudeMode>
					<coordinates>-64.7667,-25.9,309649.000000</coordinates>
					<extrude>1</extrude>
				</Point>
			</Placemark>
			<Placemark>
				<name>Argentina, ARGENTINA: 67 hits</name>
				<styleUrl>#sphere_icon</styleUrl>
				<Point>
					<altitudeMode>relativeToGround</altitudeMode>
					<coordinates>-62.2833,-29.55,942491.000000</coordinates>
					<extrude>1</extrude>
				</Point>
			</Placemark>
			<Placemark>
				<name>Avellaneda, ARGENTINA: 1 hits</name>
				<styleUrl>#sphere_icon</styleUrl>
				<Point>
					<altitudeMode>relativeToGround</altitudeMode>
					<coordinates>-54.7833,-26.65,154824.000000</coordinates>
					<extrude>1</extrude>
				</Point>
			</Placemark>
			<Placemark>
				<name>Bahia Blanca, ARGENTINA: 8 hits</name>
				<styleUrl>#sphere_icon</styleUrl>
				<Point>
					<altitudeMode>relativeToGround</altitudeMode>
					<coordinates>-62.0,-38.0,490783.000000</coordinates>
					<extrude>1</extrude>
				</Point>
			</Placemark>
			<Placemark>
				<name>Bahía Blanca, ARGENTINA: 9 hits</name>
				<styleUrl>#sphere_icon</styleUrl>
				<Point>
					<altitudeMode>relativeToGround</altitudeMode>
					<coordinates>-62.2833,-38.7167,514317.000000</coordinates>
					<extrude>1</extrude>
				</Point>
			</Placemark>
			<Placemark>
				<name>Bariloche, ARGENTINA: 17 hits</name>
				<styleUrl>#sphere_icon</styleUrl>
				<Point>
					<altitudeMode>relativeToGround</altitudeMode>
					<coordinates>-62.2333,-35.5,645608.000000</coordinates>
					<extrude>1</extrude>
				</Point>
			</Placemark>
			<Placemark>
				<name>Berazategui, ARGENTINA: 133 hits</name>
				<styleUrl>#sphere_icon</styleUrl>
				<Point>
					<altitudeMode>relativeToGround</altitudeMode>
					<coordinates>-58.2167,-34.7667,1094007.000000</coordinates>
					<extrude>1</extrude>
				</Point>
			</Placemark>
			<Placemark>
				<name>Buenos Aires, ARGENTINA: 4890 hits</name>
				<styleUrl>#sphere_icon</styleUrl>
				<Point>
					<altitudeMode>relativeToGround</altitudeMode>
					<coordinates>-58.3667,-34.5833,1897521.000000</coordinates>
					<extrude>1</extrude>
				</Point>
			</Placemark>
			<Placemark>
				<name>Campana, ARGENTINA: 2 hits</name>
				<styleUrl>#sphere_icon</styleUrl>
				<Point>
					<altitudeMode>relativeToGround</altitudeMode>
					<coordinates>-58.9544,-34.1669,245391.000000</coordinates>
					<extrude>1</extrude>
				</Point>
			</Placemark>
			<Placemark>
				<name>Capital Federal, ARGENTINA: 58 hits</name>
				<styleUrl>#sphere_icon</styleUrl>
				<Point>
					<altitudeMode>relativeToGround</altitudeMode>
					<coordinates>-58.5,-34.3333,910780.000000</coordinates>
					<extrude>1</extrude>
				</Point>
			</Placemark>
			<Placemark>
				<name>Catamarca, ARGENTINA: 3 hits</name>
				<styleUrl>#sphere_icon</styleUrl>
				<Point>
					<altitudeMode>relativeToGround</altitudeMode>
					<coordinates>-65.7833,-28.4667,309649.000000</coordinates>
					<extrude>1</extrude>
				</Point>
			</Placemark>
			<Placemark>
				<name>Ceres, ARGENTINA: 31 hits</name>
				<styleUrl>#sphere_icon</styleUrl>
				<Point>
					<altitudeMode>relativeToGround</altitudeMode>
					<coordinates>-61.95,-29.8833,774124.000000</coordinates>
					<extrude>1</extrude>
				</Point>
			</Placemark>
			<Placemark>
				<name>Cipolleti, ARGENTINA: 1 hits</name>
				<styleUrl>#sphere_icon</styleUrl>
				<Point>
					<altitudeMode>relativeToGround</altitudeMode>
					<coordinates>-67.9833,-38.9333,154824.000000</coordinates>
					<extrude>1</extrude>
				</Point>
			</Placemark>
			<Placemark>
				<name>Córdoba, ARGENTINA: 398 hits</name>
				<styleUrl>#sphere_icon</styleUrl>
				<Point>
					<altitudeMode>relativeToGround</altitudeMode>
					<coordinates>-64.1833,-31.4,1337725.000000</coordinates>
					<extrude>1</extrude>
				</Point>
			</Placemark>
			<Placemark>
				<name>El Cimarrón, ARGENTINA: 10 hits</name>
				<styleUrl>#sphere_icon</styleUrl>
				<Point>
					<altitudeMode>relativeToGround</altitudeMode>
					<coordinates>-67.6833,-28.7833,535606.000000</coordinates>
					<extrude>1</extrude>
				</Point>
			</Placemark>
			<Placemark>
				<name>Esperanza, ARGENTINA: 1 hits</name>
				<styleUrl>#sphere_icon</styleUrl>
				<Point>
					<altitudeMode>relativeToGround</altitudeMode>
					<coordinates>-54.65,-26.0167,154824.000000</coordinates>
					<extrude>1</extrude>
				</Point>
			</Placemark>
			<Placemark>
				<name>Federal, ARGENTINA: 25 hits</name>
				<styleUrl>#sphere_icon</styleUrl>
				<Point>
					<altitudeMode>relativeToGround</altitudeMode>
					<coordinates>-58.8,-30.95,727745.000000</coordinates>
					<extrude>1</extrude>
				</Point>
			</Placemark>
			<Placemark>
				<name>Freyre, ARGENTINA: 1 hits</name>
				<styleUrl>#sphere_icon</styleUrl>
				<Point>
					<altitudeMode>relativeToGround</altitudeMode>
					<coordinates>-62.1,-31.1667,154824.000000</coordinates>
					<extrude>1</extrude>
				</Point>
			</Placemark>
			<Placemark>
				<name>Garín, ARGENTINA: 1 hits</name>
				<styleUrl>#sphere_icon</styleUrl>
				<Point>
					<altitudeMode>relativeToGround</altitudeMode>
					<coordinates>-58.7333,-34.4333,154824.000000</coordinates>
					<extrude>1</extrude>
				</Point>
			</Placemark>
			<Placemark>
				<name>General Roca, ARGENTINA: 1 hits</name>
				<styleUrl>#sphere_icon</styleUrl>
				<Point>
					<altitudeMode>relativeToGround</altitudeMode>
					<coordinates>-66.4667,-32.65,154824.000000</coordinates>
					<extrude>1</extrude>
				</Point>
			</Placemark>
			<Placemark>
				<name>Godoy Cruz, ARGENTINA: 2 hits</name>
				<styleUrl>#sphere_icon</styleUrl>
				<Point>
					<altitudeMode>relativeToGround</altitudeMode>
					<coordinates>-68.8333,-32.9167,245391.000000</coordinates>
					<extrude>1</extrude>
				</Point>
			</Placemark>
			<Placemark>
				<name>González Catán, ARGENTINA: 5 hits</name>
				<styleUrl>#sphere_icon</styleUrl>
				<Point>
					<altitudeMode>relativeToGround</altitudeMode>
					<coordinates>-58.6428,-34.7675,400216.000000</coordinates>
					<extrude>1</extrude>
				</Point>
			</Placemark>
			<Placemark>
				<name>Granadero Baigorria, ARGENTINA: 3 hits</name>
				<styleUrl>#sphere_icon</styleUrl>
				<Point>
					<altitudeMode>relativeToGround</altitudeMode>
					<coordinates>-60.6833,-32.8667,309649.000000</coordinates>
					<extrude>1</extrude>
				</Point>
			</Placemark>
			<Placemark>
				<name>Gualeguay, ARGENTINA: 12 hits</name>
				<styleUrl>#sphere_icon</styleUrl>
				<Point>
					<altitudeMode>relativeToGround</altitudeMode>
					<coordinates>-59.3292,-33.1444,572920.000000</coordinates>
					<extrude>1</extrude>
				</Point>
			</Placemark>
			<Placemark>
				<name>La Plata, ARGENTINA: 35 hits</name>
				<styleUrl>#sphere_icon</styleUrl>
				<Point>
					<altitudeMode>relativeToGround</altitudeMode>
					<coordinates>-57.9489,-34.9314,800433.000000</coordinates>
					<extrude>1</extrude>
				</Point>
			</Placemark>
			<Placemark>
				<name>Lago Puelo, ARGENTINA: 151 hits</name>
				<styleUrl>#sphere_icon</styleUrl>
				<Point>
					<altitudeMode>relativeToGround</altitudeMode>
					<coordinates>-71.6333,-42.0833,1122160.000000</coordinates>
					<extrude>1</extrude>
				</Point>
			</Placemark>
			<Placemark>
				<name>Lanús, ARGENTINA: 18 hits</name>
				<styleUrl>#sphere_icon</styleUrl>
				<Point>
					<altitudeMode>relativeToGround</altitudeMode>
					<coordinates>-58.4,-34.7167,657685.000000</coordinates>
					<extrude>1</extrude>
				</Point>
			</Placemark>
			<Placemark>
				<name>Las Rosas, ARGENTINA: 1 hits</name>
				<styleUrl>#sphere_icon</styleUrl>
				<Point>
					<altitudeMode>relativeToGround</altitudeMode>
					<coordinates>-65.0667,-31.9333,154824.000000</coordinates>
					<extrude>1</extrude>
				</Point>
			</Placemark>
			<Placemark>
				<name>Mangrullo, ARGENTINA: 2 hits</name>
				<styleUrl>#sphere_icon</styleUrl>
				<Point>
					<altitudeMode>relativeToGround</altitudeMode>
					<coordinates>-65.0167,-28.1,245391.000000</coordinates>
					<extrude>1</extrude>
				</Point>
			</Placemark>
			<Placemark>
				<name>Mar Del Plata, ARGENTINA: 904 hits</name>
				<styleUrl>#sphere_icon</styleUrl>
				<Point>
					<altitudeMode>relativeToGround</altitudeMode>
					<coordinates>-57.5667,-37.9333,1520656.000000</coordinates>
					<extrude>1</extrude>
				</Point>
			</Placemark>
			<Placemark>
				<name>Mendoza, ARGENTINA: 12 hits</name>
				<styleUrl>#sphere_icon</styleUrl>
				<Point>
					<altitudeMode>relativeToGround</altitudeMode>
					<coordinates>-68.8167,-32.8833,572920.000000</coordinates>
					<extrude>1</extrude>
				</Point>
			</Placemark>
			<Placemark>
				<name>Moreno, ARGENTINA: 1 hits</name>
				<styleUrl>#sphere_icon</styleUrl>
				<Point>
					<altitudeMode>relativeToGround</altitudeMode>
					<coordinates>-65.8,-23.8667,154824.000000</coordinates>
					<extrude>1</extrude>
				</Point>
			</Placemark>
			<Placemark>
				<name>N. Goni, ARGENTINA: 5 hits</name>
				<styleUrl>#sphere_icon</styleUrl>
				<Point>
					<altitudeMode>relativeToGround</altitudeMode>
					<coordinates>-59.8333,-37.4667,400216.000000</coordinates>
					<extrude>1</extrude>
				</Point>
			</Placemark>
			<Placemark>
				<name>Neuquén, ARGENTINA: 5 hits</name>
				<styleUrl>#sphere_icon</styleUrl>
				<Point>
					<altitudeMode>relativeToGround</altitudeMode>
					<coordinates>-68.0667,-38.95,400216.000000</coordinates>
					<extrude>1</extrude>
				</Point>
			</Placemark>
			<Placemark>
				<name>Parana, ARGENTINA: 3 hits</name>
				<styleUrl>#sphere_icon</styleUrl>
				<Point>
					<altitudeMode>relativeToGround</altitudeMode>
					<coordinates>-60.3667,-31.7667,309649.000000</coordinates>
					<extrude>1</extrude>
				</Point>
			</Placemark>
			<Placemark>
				<name>Paraná, ARGENTINA: 36 hits</name>
				<styleUrl>#sphere_icon</styleUrl>
				<Point>
					<altitudeMode>relativeToGround</altitudeMode>
					<coordinates>-64.4667,-27.0833,806553.000000</coordinates>
					<extrude>1</extrude>
				</Point>
			</Placemark>
			<Placemark>
				<name>Pehuajó, ARGENTINA: 2 hits</name>
				<styleUrl>#sphere_icon</styleUrl>
				<Point>
					<altitudeMode>relativeToGround</altitudeMode>
					<coordinates>-61.9053,-35.8147,245391.000000</coordinates>
					<extrude>1</extrude>
				</Point>
			</Placemark>
			<Placemark>
				<name>Pilar, ARGENTINA: 2 hits</name>
				<styleUrl>#sphere_icon</styleUrl>
				<Point>
					<altitudeMode>relativeToGround</altitudeMode>
					<coordinates>-61.25,-31.45,245391.000000</coordinates>
					<extrude>1</extrude>
				</Point>
			</Placemark>
			<Placemark>
				<name>Pinamar, ARGENTINA: 5 hits</name>
				<styleUrl>#sphere_icon</styleUrl>
				<Point>
					<altitudeMode>relativeToGround</altitudeMode>
					<coordinates>-56.9167,-37.0833,400216.000000</coordinates>
					<extrude>1</extrude>
				</Point>
			</Placemark>
			<Placemark>
				<name>Posadas, ARGENTINA: 4 hits</name>
				<styleUrl>#sphere_icon</styleUrl>
				<Point>
					<altitudeMode>relativeToGround</altitudeMode>
					<coordinates>-55.8833,-27.3833,359492.000000</coordinates>
					<extrude>1</extrude>
				</Point>
			</Placemark>
			<Placemark>
				<name>Puiggari, ARGENTINA: 12 hits</name>
				<styleUrl>#sphere_icon</styleUrl>
				<Point>
					<altitudeMode>relativeToGround</altitudeMode>
					<coordinates>-60.45,-32.05,572920.000000</coordinates>
					<extrude>1</extrude>
				</Point>
			</Placemark>
			<Placemark>
				<name>Punta Alta, ARGENTINA: 8 hits</name>
				<styleUrl>#sphere_icon</styleUrl>
				<Point>
					<altitudeMode>relativeToGround</altitudeMode>
					<coordinates>-62.0833,-38.8333,490783.000000</coordinates>
					<extrude>1</extrude>
				</Point>
			</Placemark>
			<Placemark>
				<name>Ramos Mejía, ARGENTINA: 1 hits</name>
				<styleUrl>#sphere_icon</styleUrl>
				<Point>
					<altitudeMode>relativeToGround</altitudeMode>
					<coordinates>-58.5667,-34.6333,154824.000000</coordinates>
					<extrude>1</extrude>
				</Point>
			</Placemark>
			<Placemark>
				<name>Rio Cuarto, ARGENTINA: 4 hits</name>
				<styleUrl>#sphere_icon</styleUrl>
				<Point>
					<altitudeMode>relativeToGround</altitudeMode>
					<coordinates>-64.2667,-33.0833,359492.000000</coordinates>
					<extrude>1</extrude>
				</Point>
			</Placemark>
			<Placemark>
				<name>Rosario, ARGENTINA: 107 hits</name>
				<styleUrl>#sphere_icon</styleUrl>
				<Point>
					<altitudeMode>relativeToGround</altitudeMode>
					<coordinates>-66.7167,-22.85,1045825.000000</coordinates>
					<extrude>1</extrude>
				</Point>
			</Placemark>
			<Placemark>
				<name>Salta, ARGENTINA: 55 hits</name>
				<styleUrl>#sphere_icon</styleUrl>
				<Point>
					<altitudeMode>relativeToGround</altitudeMode>
					<coordinates>-65.4167,-24.7833,899123.000000</coordinates>
					<extrude>1</extrude>
				</Point>
			</Placemark>
			<Placemark>
				<name>San Carlos de Bariloche, ARGENTINA: 28 hits</name>
				<styleUrl>#sphere_icon</styleUrl>
				<Point>
					<altitudeMode>relativeToGround</altitudeMode>
					<coordinates>-71.3,-41.15,752136.000000</coordinates>
					<extrude>1</extrude>
				</Point>
			</Placemark>
			<Placemark>
				<name>San Clemente del Tuyu, ARGENTINA: 19 hits</name>
				<styleUrl>#sphere_icon</styleUrl>
				<Point>
					<altitudeMode>relativeToGround</altitudeMode>
					<coordinates>-56.7333,-36.35,669142.000000</coordinates>
					<extrude>1</extrude>
				</Point>
			</Placemark>
			<Placemark>
				<name>San Martín de los Andes, ARGENTINA: 1 hits</name>
				<styleUrl>#sphere_icon</styleUrl>
				<Point>
					<altitudeMode>relativeToGround</altitudeMode>
					<coordinates>-71.35,-40.1667,154824.000000</coordinates>
					<extrude>1</extrude>
				</Point>
			</Placemark>
			<Placemark>
				<name>San Miguel de Tucumán, ARGENTINA: 14 hits</name>
				<styleUrl>#sphere_icon</styleUrl>
				<Point>
					<altitudeMode>relativeToGround</altitudeMode>
					<coordinates>-65.2167,-26.8167,604884.000000</coordinates>
					<extrude>1</extrude>
				</Point>
			</Placemark>
			<Placemark>
				<name>San Rafael, ARGENTINA: 9 hits</name>
				<styleUrl>#sphere_icon</styleUrl>
				<Point>
					<altitudeMode>relativeToGround</altitudeMode>
					<coordinates>-64.4,-24.1167,514317.000000</coordinates>
					<extrude>1</extrude>
				</Point>
			</Placemark>
			<Placemark>
				<name>San Salvador de Jujuy, ARGENTINA: 22 hits</name>
				<styleUrl>#sphere_icon</styleUrl>
				<Point>
					<altitudeMode>relativeToGround</altitudeMode>
					<coordinates>-65.3,-24.1833,700360.000000</coordinates>
					<extrude>1</extrude>
				</Point>
			</Placemark>
			<Placemark>
				<name>San Vicente, ARGENTINA: 3 hits</name>
				<styleUrl>#sphere_icon</styleUrl>
				<Point>
					<altitudeMode>relativeToGround</altitudeMode>
					<coordinates>-63.4833,-26.0167,309649.000000</coordinates>
					<extrude>1</extrude>
				</Point>
			</Placemark>
			<Placemark>
				<name>Santa Fe, ARGENTINA: 19 hits</name>
				<styleUrl>#sphere_icon</styleUrl>
				<Point>
					<altitudeMode>relativeToGround</altitudeMode>
					<coordinates>-60.7,-31.6333,669142.000000</coordinates>
					<extrude>1</extrude>
				</Point>
			</Placemark>
			<Placemark>
				<name>Santa Rosa, ARGENTINA: 2 hits</name>
				<styleUrl>#sphere_icon</styleUrl>
				<Point>
					<altitudeMode>relativeToGround</altitudeMode>
					<coordinates>-65.1333,-23.3333,245391.000000</coordinates>
					<extrude>1</extrude>
				</Point>
			</Placemark>
			<Placemark>
				<name>Santiago del Estero, ARGENTINA: 2 hits</name>
				<styleUrl>#sphere_icon</styleUrl>
				<Point>
					<altitudeMode>relativeToGround</altitudeMode>
					<coordinates>-64.2667,-27.7833,245391.000000</coordinates>
					<extrude>1</extrude>
				</Point>
			</Placemark>
			<Placemark>
				<name>Tigre, ARGENTINA: 2 hits</name>
				<styleUrl>#sphere_icon</styleUrl>
				<Point>
					<altitudeMode>relativeToGround</altitudeMode>
					<coordinates>-58.5667,-34.4167,245391.000000</coordinates>
					<extrude>1</extrude>
				</Point>
			</Placemark>
			<Placemark>
				<name>Trelew, ARGENTINA: 2 hits</name>
				<styleUrl>#sphere_icon</styleUrl>
				<Point>
					<altitudeMode>relativeToGround</altitudeMode>
					<coordinates>-65.3,-43.25,245391.000000</coordinates>
					<extrude>1</extrude>
				</Point>
			</Placemark>
			<Placemark>
				<name>Tres Arroyos, ARGENTINA: 5 hits</name>
				<styleUrl>#sphere_icon</styleUrl>
				<Point>
					<altitudeMode>relativeToGround</altitudeMode>
					<coordinates>-60.2833,-38.3833,400216.000000</coordinates>
					<extrude>1</extrude>
				</Point>
			</Placemark>
			<Placemark>
				<name>Tucumán, ARGENTINA: 157 hits</name>
				<styleUrl>#sphere_icon</styleUrl>
				<Point>
					<altitudeMode>relativeToGround</altitudeMode>
					<coordinates>-65.2167,-26.8167,1130807.000000</coordinates>
					<extrude>1</extrude>
				</Point>
			</Placemark>
			<Placemark>
				<name>USHUAIA, ARGENTINA: 2 hits</name>
				<styleUrl>#sphere_icon</styleUrl>
				<Point>
					<altitudeMode>relativeToGround</altitudeMode>
					<coordinates>-68.3,-54.8,245391.000000</coordinates>
					<extrude>1</extrude>
				</Point>
			</Placemark>
			<Placemark>
				<name>Vedia, ARGENTINA: 4 hits</name>
				<styleUrl>#sphere_icon</styleUrl>
				<Point>
					<altitudeMode>relativeToGround</altitudeMode>
					<coordinates>-61.4833,-34.4833,359492.000000</coordinates>
					<extrude>1</extrude>
				</Point>
			</Placemark>
			<Placemark>
				<name>Viedma, ARGENTINA: 4 hits</name>
				<styleUrl>#sphere_icon</styleUrl>
				<Point>
					<altitudeMode>relativeToGround</altitudeMode>
					<coordinates>-63.0,-40.8,359492.000000</coordinates>
					<extrude>1</extrude>
				</Point>
			</Placemark>
			<Placemark>
				<name>Villa General Belgrano, ARGENTINA: 11 hits</name>
				<styleUrl>#sphere_icon</styleUrl>
				<Point>
					<altitudeMode>relativeToGround</altitudeMode>
					<coordinates>-65.6167,-27.5167,555041.000000</coordinates>
					<extrude>1</extrude>
				</Point>
			</Placemark>
			<Placemark>
				<name>Villa Gesell, ARGENTINA: 4 hits</name>
				<styleUrl>#sphere_icon</styleUrl>
				<Point>
					<altitudeMode>relativeToGround</altitudeMode>
					<coordinates>-56.9167,-37.25,359492.000000</coordinates>
					<extrude>1</extrude>
				</Point>
			</Placemark>
			<Placemark>
				<name>Villa Ángela, ARGENTINA: 5 hits</name>
				<styleUrl>#sphere_icon</styleUrl>
				<Point>
					<altitudeMode>relativeToGround</altitudeMode>
					<coordinates>-60.7167,-27.5833,400216.000000</coordinates>
					<extrude>1</extrude>
				</Point>
			</Placemark>
			<Placemark>
				<name>Yerba Buena, ARGENTINA: 1 hits</name>
				<styleUrl>#sphere_icon</styleUrl>
				<Point>
					<altitudeMode>relativeToGround</altitudeMode>
					<coordinates>-65.3167,-26.8167,154824.000000</coordinates>
					<extrude>1</extrude>
				</Point>
			</Placemark>
			<Placemark>
				<name>Zárate, ARGENTINA: 1 hits</name>
				<styleUrl>#sphere_icon</styleUrl>
				<Point>
					<altitudeMode>relativeToGround</altitudeMode>
					<coordinates>-65.4,-26.2167,154824.000000</coordinates>
					<extrude>1</extrude>
				</Point>
			</Placemark>
		</Folder>
		<Folder>
			<name>ARMENIA: 10 hits, 1 cities</name>
			<Placemark>
				<name>Yerevan, ARMENIA: 10 hits</name>
				<styleUrl>#sphere_icon</styleUrl>
				<Point>
					<altitudeMode>relativeToGround</altitudeMode>
					<coordinates>44.4647,40.1256,535606.000000</coordinates>
					<extrude>1</extrude>
				</Point>
			</Placemark>
		</Folder>
		<Folder>
			<name>AUSTRALIA: 22840 hits, 269 cities</name>
			<Placemark>
				<name>Ackland, AUSTRALIA: 23 hits</name>
				<styleUrl>#sphere_icon</styleUrl>
				<Point>
					<altitudeMode>relativeToGround</altitudeMode>
					<coordinates>151.683,-27.3,709866.000000</coordinates>
					<extrude>1</extrude>
				</Point>
			</Placemark>
			<Placemark>
				<name>Adelaide, AUSTRALIA: 976 hits</name>
				<styleUrl>#sphere_icon</styleUrl>
				<Point>
					<altitudeMode>relativeToGround</altitudeMode>
					<coordinates>138.6,-34.9167,1537755.000000</coordinates>
					<extrude>1</extrude>
				</Point>
			</Placemark>
			<Placemark>
				<name>Albany, AUSTRALIA: 28 hits</name>
				<styleUrl>#sphere_icon</styleUrl>
				<Point>
					<altitudeMode>relativeToGround</altitudeMode>
					<coordinates>117.883,-35.0333,752136.000000</coordinates>
					<extrude>1</extrude>
				</Point>
			</Placemark>
			<Placemark>
				<name>Albury, AUSTRALIA: 11 hits</name>
				<styleUrl>#sphere_icon</styleUrl>
				<Point>
					<altitudeMode>relativeToGround</altitudeMode>
					<coordinates>146.917,-36.0833,555041.000000</coordinates>
					<extrude>1</extrude>
				</Point>
			</Placemark>
			<Placemark>
				<name>Alice Springs, AUSTRALIA: 6 hits</name>
				<styleUrl>#sphere_icon</styleUrl>
				<Point>
					<altitudeMode>relativeToGround</altitudeMode>
					<coordinates>133.883,-23.7,434648.000000</coordinates>
					<extrude>1</extrude>
				</Point>
			</Placemark>
			<Placemark>
				<name>Applecross, AUSTRALIA: 39 hits</name>
				<styleUrl>#sphere_icon</styleUrl>
				<Point>
					<altitudeMode>relativeToGround</altitudeMode>
					<coordinates>115.833,-32.0167,823967.000000</coordinates>
					<extrude>1</extrude>
				</Point>
			</Placemark>
			<Placemark>
				<name>Armadale, AUSTRALIA: 5 hits</name>
				<styleUrl>#sphere_icon</styleUrl>
				<Point>
					<altitudeMode>relativeToGround</altitudeMode>
					<coordinates>116.0,-32.15,400216.000000</coordinates>
					<extrude>1</extrude>
				</Point>
			</Placemark>
			<Placemark>
				<name>Armidale, AUSTRALIA: 9 hits</name>
				<styleUrl>#sphere_icon</styleUrl>
				<Point>
					<altitudeMode>relativeToGround</altitudeMode>
					<coordinates>151.65,-30.5167,514317.000000</coordinates>
					<extrude>1</extrude>
				</Point>
			</Placemark>
			<Placemark>
				<name>Ashfield, AUSTRALIA: 9 hits</name>
				<styleUrl>#sphere_icon</styleUrl>
				<Point>
					<altitudeMode>relativeToGround</altitudeMode>
					<coordinates>151.117,-33.8833,514317.000000</coordinates>
					<extrude>1</extrude>
				</Point>
			</Placemark>
			<Placemark>
				<name>Aspley, AUSTRALIA: 1 hits</name>
				<styleUrl>#sphere_icon</styleUrl>
				<Point>
					<altitudeMode>relativeToGround</altitudeMode>
					<coordinates>153.017,-27.3667,154824.000000</coordinates>
					<extrude>1</extrude>
				</Point>
			</Placemark>
			<Placemark>
				<name>Atherton, AUSTRALIA: 1 hits</name>
				<styleUrl>#sphere_icon</styleUrl>
				<Point>
					<altitudeMode>relativeToGround</altitudeMode>
					<coordinates>145.483,-17.2667,154824.000000</coordinates>
					<extrude>1</extrude>
				</Point>
			</Placemark>
			<Placemark>
				<name>Balgownie, AUSTRALIA: 1 hits</name>
				<styleUrl>#sphere_icon</styleUrl>
				<Point>
					<altitudeMode>relativeToGround</altitudeMode>
					<coordinates>150.9,-34.4,154824.000000</coordinates>
					<extrude>1</extrude>
				</Point>
			</Placemark>
			<Placemark>
				<name>Ballarat, AUSTRALIA: 31 hits</name>
				<styleUrl>#sphere_icon</styleUrl>
				<Point>
					<altitudeMode>relativeToGround</altitudeMode>
					<coordinates>143.867,-37.5667,774124.000000</coordinates>
					<extrude>1</extrude>
				</Point>
			</Placemark>
			<Placemark>
				<name>Ballina, AUSTRALIA: 6 hits</name>
				<styleUrl>#sphere_icon</styleUrl>
				<Point>
					<altitudeMode>relativeToGround</altitudeMode>
					<coordinates>153.567,-28.8667,434648.000000</coordinates>
					<extrude>1</extrude>
				</Point>
			</Placemark>
			<Placemark>
				<name>Barrington, AUSTRALIA: 2 hits</name>
				<styleUrl>#sphere_icon</styleUrl>
				<Point>
					<altitudeMode>relativeToGround</altitudeMode>
					<coordinates>151.9,-31.9667,245391.000000</coordinates>
					<extrude>1</extrude>
				</Point>
			</Placemark>
			<Placemark>
				<name>Batemans Bay, AUSTRALIA: 2 hits</name>
				<styleUrl>#sphere_icon</styleUrl>
				<Point>
					<altitudeMode>relativeToGround</altitudeMode>
					<coordinates>150.183,-35.7167,245391.000000</coordinates>
					<extrude>1</extrude>
				</Point>
			</Placemark>
			<Placemark>
				<name>Bathurst, AUSTRALIA: 8 hits</name>
				<styleUrl>#sphere_icon</styleUrl>
				<Point>
					<altitudeMode>relativeToGround</altitudeMode>
					<coordinates>149.567,-33.4167,490783.000000</coordinates>
					<extrude>1</extrude>
				</Point>
			</Placemark>
			<Placemark>
				<name>Baulkham Hills, AUSTRALIA: 160 hits</name>
				<styleUrl>#sphere_icon</styleUrl>
				<Point>
					<altitudeMode>relativeToGround</altitudeMode>
					<coordinates>151.0,-33.75,1135009.000000</coordinates>
					<extrude>1</extrude>
				</Point>
			</Placemark>
			<Placemark>
				<name>Beerburrum, AUSTRALIA: 2 hits</name>
				<styleUrl>#sphere_icon</styleUrl>
				<Point>
					<altitudeMode>relativeToGround</altitudeMode>
					<coordinates>152.967,-26.9667,245391.000000</coordinates>
					<extrude>1</extrude>
				</Point>
			</Placemark>
			<Placemark>
				<name>Beerwah, AUSTRALIA: 3 hits</name>
				<styleUrl>#sphere_icon</styleUrl>
				<Point>
					<altitudeMode>relativeToGround</altitudeMode>
					<coordinates>152.967,-26.85,309649.000000</coordinates>
					<extrude>1</extrude>
				</Point>
			</Placemark>
			<Placemark>
				<name>Belmont, AUSTRALIA: 6 hits</name>
				<styleUrl>#sphere_icon</styleUrl>
				<Point>
					<altitudeMode>relativeToGround</altitudeMode>
					<coordinates>153.117,-27.5,434648.000000</coordinates>
					<extrude>1</extrude>
				</Point>
			</Placemark>
			<Placemark>
				<name>Bendemeer, AUSTRALIA: 2 hits</name>
				<styleUrl>#sphere_icon</styleUrl>
				<Point>
					<altitudeMode>relativeToGround</altitudeMode>
					<coordinates>151.167,-30.8833,245391.000000</coordinates>
					<extrude>1</extrude>
				</Point>
			</Placemark>
			<Placemark>
				<name>Bendigo, AUSTRALIA: 38 hits</name>
				<styleUrl>#sphere_icon</styleUrl>
				<Point>
					<altitudeMode>relativeToGround</altitudeMode>
					<coordinates>144.267,-36.7667,818312.000000</coordinates>
					<extrude>1</extrude>
				</Point>
			</Placemark>
			<Placemark>
				<name>Berowra, AUSTRALIA: 1 hits</name>
				<styleUrl>#sphere_icon</styleUrl>
				<Point>
					<altitudeMode>relativeToGround</altitudeMode>
					<coordinates>151.15,-33.6333,154824.000000</coordinates>
					<extrude>1</extrude>
				</Point>
			</Placemark>
			<Placemark>
				<name>Blackburn, AUSTRALIA: 3 hits</name>
				<styleUrl>#sphere_icon</styleUrl>
				<Point>
					<altitudeMode>relativeToGround</altitudeMode>
					<coordinates>145.167,-37.8167,309649.000000</coordinates>
					<extrude>1</extrude>
				</Point>
			</Placemark>
			<Placemark>
				<name>Blacktown, AUSTRALIA: 10 hits</name>
				<styleUrl>#sphere_icon</styleUrl>
				<Point>
					<altitudeMode>relativeToGround</altitudeMode>
					<coordinates>150.917,-33.7667,535606.000000</coordinates>
					<extrude>1</extrude>
				</Point>
			</Placemark>
			<Placemark>
				<name>Blue Mountains, AUSTRALIA: 7 hits</name>
				<styleUrl>#sphere_icon</styleUrl>
				<Point>
					<altitudeMode>relativeToGround</altitudeMode>
					<coordinates>143.25,-13.5333,464474.000000</coordinates>
					<extrude>1</extrude>
				</Point>
			</Placemark>
			<Placemark>
				<name>Bowral, AUSTRALIA: 7 hits</name>
				<styleUrl>#sphere_icon</styleUrl>
				<Point>
					<altitudeMode>relativeToGround</altitudeMode>
					<coordinates>150.417,-34.4667,464474.000000</coordinates>
					<extrude>1</extrude>
				</Point>
			</Placemark>
			<Placemark>
				<name>Box Hill, AUSTRALIA: 24 hits</name>
				<styleUrl>#sphere_icon</styleUrl>
				<Point>
					<altitudeMode>relativeToGround</altitudeMode>
					<coordinates>145.133,-37.8167,718984.000000</coordinates>
					<extrude>1</extrude>
				</Point>
			</Placemark>
			<Placemark>
				<name>Boyup Brook, AUSTRALIA: 2 hits</name>
				<styleUrl>#sphere_icon</styleUrl>
				<Point>
					<altitudeMode>relativeToGround</altitudeMode>
					<coordinates>116.4,-33.8333,245391.000000</coordinates>
					<extrude>1</extrude>
				</Point>
			</Placemark>
			<Placemark>
				<name>Bridgewater, AUSTRALIA: 13 hits</name>
				<styleUrl>#sphere_icon</styleUrl>
				<Point>
					<altitudeMode>relativeToGround</altitudeMode>
					<coordinates>138.75,-35.0,589473.000000</coordinates>
					<extrude>1</extrude>
				</Point>
			</Placemark>
			<Placemark>
				<name>Brighton, AUSTRALIA: 2 hits</name>
				<styleUrl>#sphere_icon</styleUrl>
				<Point>
					<altitudeMode>relativeToGround</altitudeMode>
					<coordinates>153.067,-27.3,245391.000000</coordinates>
					<extrude>1</extrude>
				</Point>
			</Placemark>
			<Placemark>
				<name>Brisbane, AUSTRALIA: 1654 hits</name>
				<styleUrl>#sphere_icon</styleUrl>
				<Point>
					<altitudeMode>relativeToGround</altitudeMode>
					<coordinates>153.133,-27.4833,1655484.000000</coordinates>
					<extrude>1</extrude>
				</Point>
			</Placemark>
			<Placemark>
				<name>Brooklyn, AUSTRALIA: 5 hits</name>
				<styleUrl>#sphere_icon</styleUrl>
				<Point>
					<altitudeMode>relativeToGround</altitudeMode>
					<coordinates>151.233,-33.55,400216.000000</coordinates>
					<extrude>1</extrude>
				</Point>
			</Placemark>
			<Placemark>
				<name>Broome, AUSTRALIA: 170 hits</name>
				<styleUrl>#sphere_icon</styleUrl>
				<Point>
					<altitudeMode>relativeToGround</altitudeMode>
					<coordinates>122.233,-17.9667,1148468.000000</coordinates>
					<extrude>1</extrude>
				</Point>
			</Placemark>
			<Placemark>
				<name>Brunswick, AUSTRALIA: 3 hits</name>
				<styleUrl>#sphere_icon</styleUrl>
				<Point>
					<altitudeMode>relativeToGround</altitudeMode>
					<coordinates>153.55,-28.55,309649.000000</coordinates>
					<extrude>1</extrude>
				</Point>
			</Placemark>
			<Placemark>
				<name>Bunbury, AUSTRALIA: 16 hits</name>
				<styleUrl>#sphere_icon</styleUrl>
				<Point>
					<altitudeMode>relativeToGround</altitudeMode>
					<coordinates>115.633,-33.3333,632841.000000</coordinates>
					<extrude>1</extrude>
				</Point>
			</Placemark>
			<Placemark>
				<name>Bundaberg, AUSTRALIA: 7 hits</name>
				<styleUrl>#sphere_icon</styleUrl>
				<Point>
					<altitudeMode>relativeToGround</altitudeMode>
					<coordinates>152.35,-24.8667,464474.000000</coordinates>
					<extrude>1</extrude>
				</Point>
			</Placemark>
			<Placemark>
				<name>Bundoora, AUSTRALIA: 2 hits</name>
				<styleUrl>#sphere_icon</styleUrl>
				<Point>
					<altitudeMode>relativeToGround</altitudeMode>
					<coordinates>145.045,-37.7164,245391.000000</coordinates>
					<extrude>1</extrude>
				</Point>
			</Placemark>
			<Placemark>
				<name>Bungendore, AUSTRALIA: 6 hits</name>
				<styleUrl>#sphere_icon</styleUrl>
				<Point>
					<altitudeMode>relativeToGround</altitudeMode>
					<coordinates>149.433,-35.25,434648.000000</coordinates>
					<extrude>1</extrude>
				</Point>
			</Placemark>
			<Placemark>
				<name>Burnie, AUSTRALIA: 25 hits</name>
				<styleUrl>#sphere_icon</styleUrl>
				<Point>
					<altitudeMode>relativeToGround</altitudeMode>
					<coordinates>145.917,-41.0667,727745.000000</coordinates>
					<extrude>1</extrude>
				</Point>
			</Placemark>
			<Placemark>
				<name>Busselton, AUSTRALIA: 2 hits</name>
				<styleUrl>#sphere_icon</styleUrl>
				<Point>
					<altitudeMode>relativeToGround</altitudeMode>
					<coordinates>115.333,-33.65,245391.000000</coordinates>
					<extrude>1</extrude>
				</Point>
			</Placemark>
			<Placemark>
				<name>Byron Bay, AUSTRALIA: 19 hits</name>
				<styleUrl>#sphere_icon</styleUrl>
				<Point>
					<altitudeMode>relativeToGround</altitudeMode>
					<coordinates>153.617,-28.65,669142.000000</coordinates>
					<extrude>1</extrude>
				</Point>
			</Placemark>
			<Placemark>
				<name>Caboolture, AUSTRALIA: 4 hits</name>
				<styleUrl>#sphere_icon</styleUrl>
				<Point>
					<altitudeMode>relativeToGround</altitudeMode>
					<coordinates>152.95,-27.0833,359492.000000</coordinates>
					<extrude>1</extrude>
				</Point>
			</Placemark>
			<Placemark>
				<name>Cairns, AUSTRALIA: 476 hits</name>
				<styleUrl>#sphere_icon</styleUrl>
				<Point>
					<altitudeMode>relativeToGround</altitudeMode>
					<coordinates>145.767,-16.9167,1377608.000000</coordinates>
					<extrude>1</extrude>
				</Point>
			</Placemark>
			<Placemark>
				<name>Camberwell, AUSTRALIA: 11 hits</name>
				<styleUrl>#sphere_icon</styleUrl>
				<Point>
					<altitudeMode>relativeToGround</altitudeMode>
					<coordinates>151.083,-32.4833,555041.000000</coordinates>
					<extrude>1</extrude>
				</Point>
			</Placemark>
			<Placemark>
				<name>Campbelltown, AUSTRALIA: 9 hits</name>
				<styleUrl>#sphere_icon</styleUrl>
				<Point>
					<altitudeMode>relativeToGround</altitudeMode>
					<coordinates>150.817,-34.0667,514317.000000</coordinates>
					<extrude>1</extrude>
				</Point>
			</Placemark>
			<Placemark>
				<name>Canberra, AUSTRALIA: 515 hits</name>
				<styleUrl>#sphere_icon</styleUrl>
				<Point>
					<altitudeMode>relativeToGround</altitudeMode>
					<coordinates>149.133,-35.2833,1395163.000000</coordinates>
					<extrude>1</extrude>
				</Point>
			</Placemark>
			<Placemark>
				<name>Cann River, AUSTRALIA: 9 hits</name>
				<styleUrl>#sphere_icon</styleUrl>
				<Point>
					<altitudeMode>relativeToGround</altitudeMode>
					<coordinates>149.167,-37.5667,514317.000000</coordinates>
					<extrude>1</extrude>
				</Point>
			</Placemark>
			<Placemark>
				<name>Cannington, AUSTRALIA: 33 hits</name>
				<styleUrl>#sphere_icon</styleUrl>
				<Point>
					<altitudeMode>relativeToGround</altitudeMode>
					<coordinates>115.95,-32.0167,787666.000000</coordinates>
					<extrude>1</extrude>
				</Point>
			</Placemark>
			<Placemark>
				<name>Canowindra, AUSTRALIA: 3 hits</name>
				<styleUrl>#sphere_icon</styleUrl>
				<Point>
					<altitudeMode>relativeToGround</altitudeMode>
					<coordinates>148.667,-33.5667,309649.000000</coordinates>
					<extrude>1</extrude>
				</Point>
			</Placemark>
			<Placemark>
				<name>Canterbury, AUSTRALIA: 18 hits</name>
				<styleUrl>#sphere_icon</styleUrl>
				<Point>
					<altitudeMode>relativeToGround</altitudeMode>
					<coordinates>141.883,-25.3833,657685.000000</coordinates>
					<extrude>1</extrude>
				</Point>
			</Placemark>
			<Placemark>
				<name>Capalaba, AUSTRALIA: 19 hits</name>
				<styleUrl>#sphere_icon</styleUrl>
				<Point>
					<altitudeMode>relativeToGround</altitudeMode>
					<coordinates>153.183,-27.5167,669142.000000</coordinates>
					<extrude>1</extrude>
				</Point>
			</Placemark>
			<Placemark>
				<name>Cape Barren Island, AUSTRALIA: 1 hits</name>
				<styleUrl>#sphere_icon</styleUrl>
				<Point>
					<altitudeMode>relativeToGround</altitudeMode>
					<coordinates>148.017,-40.3833,154824.000000</coordinates>
					<extrude>1</extrude>
				</Point>
			</Placemark>
			<Placemark>
				<name>Captains Flat, AUSTRALIA: 126 hits</name>
				<styleUrl>#sphere_icon</styleUrl>
				<Point>
					<altitudeMode>relativeToGround</altitudeMode>
					<coordinates>149.433,-35.5833,1082023.000000</coordinates>
					<extrude>1</extrude>
				</Point>
			</Placemark>
			<Placemark>
				<name>Carlingford, AUSTRALIA: 4 hits</name>
				<styleUrl>#sphere_icon</styleUrl>
				<Point>
					<altitudeMode>relativeToGround</altitudeMode>
					<coordinates>151.05,-33.7833,359492.000000</coordinates>
					<extrude>1</extrude>
				</Point>
			</Placemark>
			<Placemark>
				<name>Carlsruhe, AUSTRALIA: 7 hits</name>
				<styleUrl>#sphere_icon</styleUrl>
				<Point>
					<altitudeMode>relativeToGround</altitudeMode>
					<coordinates>144.5,-37.2833,464474.000000</coordinates>
					<extrude>1</extrude>
				</Point>
			</Placemark>
			<Placemark>
				<name>Casino, AUSTRALIA: 3 hits</name>
				<styleUrl>#sphere_icon</styleUrl>
				<Point>
					<altitudeMode>relativeToGround</altitudeMode>
					<coordinates>153.05,-28.8667,309649.000000</coordinates>
					<extrude>1</extrude>
				</Point>
			</Placemark>
			<Placemark>
				<name>Caulfield, AUSTRALIA: 1 hits</name>
				<styleUrl>#sphere_icon</styleUrl>
				<Point>
					<altitudeMode>relativeToGround</altitudeMode>
					<coordinates>145.017,-37.8833,154824.000000</coordinates>
					<extrude>1</extrude>
				</Point>
			</Placemark>
			<Placemark>
				<name>Cessnock, AUSTRALIA: 3 hits</name>
				<styleUrl>#sphere_icon</styleUrl>
				<Point>
					<altitudeMode>relativeToGround</altitudeMode>
					<coordinates>151.35,-32.8333,309649.000000</coordinates>
					<extrude>1</extrude>
				</Point>
			</Placemark>
			<Placemark>
				<name>Chatswood, AUSTRALIA: 26 hits</name>
				<styleUrl>#sphere_icon</styleUrl>
				<Point>
					<altitudeMode>relativeToGround</altitudeMode>
					<coordinates>151.183,-33.8,736175.000000</coordinates>
					<extrude>1</extrude>
				</Point>
			</Placemark>
			<Placemark>
				<name>Coffs Harbour, AUSTRALIA: 6 hits</name>
				<styleUrl>#sphere_icon</styleUrl>
				<Point>
					<altitudeMode>relativeToGround</altitudeMode>
					<coordinates>153.133,-30.3,434648.000000</coordinates>
					<extrude>1</extrude>
				</Point>
			</Placemark>
			<Placemark>
				<name>Collingwood, AUSTRALIA: 1 hits</name>
				<styleUrl>#sphere_icon</styleUrl>
				<Point>
					<altitudeMode>relativeToGround</altitudeMode>
					<coordinates>144.983,-37.8,154824.000000</coordinates>
					<extrude>1</extrude>
				</Point>
			</Placemark>
			<Placemark>
				<name>Condobolin, AUSTRALIA: 1 hits</name>
				<styleUrl>#sphere_icon</styleUrl>
				<Point>
					<altitudeMode>relativeToGround</altitudeMode>
					<coordinates>147.15,-33.0833,154824.000000</coordinates>
					<extrude>1</extrude>
				</Point>
			</Placemark>
			<Placemark>
				<name>Coogee, AUSTRALIA: 1 hits</name>
				<styleUrl>#sphere_icon</styleUrl>
				<Point>
					<altitudeMode>relativeToGround</altitudeMode>
					<coordinates>115.767,-32.1167,154824.000000</coordinates>
					<extrude>1</extrude>
				</Point>
			</Placemark>
			<Placemark>
				<name>Coolangatta, AUSTRALIA: 211 hits</name>
				<styleUrl>#sphere_icon</styleUrl>
				<Point>
					<altitudeMode>relativeToGround</altitudeMode>
					<coordinates>153.533,-28.1667,1196475.000000</coordinates>
					<extrude>1</extrude>
				</Point>
			</Placemark>
			<Placemark>
				<name>Cooranbong, AUSTRALIA: 1 hits</name>
				<styleUrl>#sphere_icon</styleUrl>
				<Point>
					<altitudeMode>relativeToGround</altitudeMode>
					<coordinates>151.433,-33.0833,154824.000000</coordinates>
					<extrude>1</extrude>
				</Point>
			</Placemark>
			<Placemark>
				<name>Corop, AUSTRALIA: 7 hits</name>
				<styleUrl>#sphere_icon</styleUrl>
				<Point>
					<altitudeMode>relativeToGround</altitudeMode>
					<coordinates>144.8,-36.4667,464474.000000</coordinates>
					<extrude>1</extrude>
				</Point>
			</Placemark>
			<Placemark>
				<name>Craigieburn, AUSTRALIA: 18 hits</name>
				<styleUrl>#sphere_icon</styleUrl>
				<Point>
					<altitudeMode>relativeToGround</altitudeMode>
					<coordinates>144.95,-37.6,657685.000000</coordinates>
					<extrude>1</extrude>
				</Point>
			</Placemark>
			<Placemark>
				<name>Cranbourne, AUSTRALIA: 7 hits</name>
				<styleUrl>#sphere_icon</styleUrl>
				<Point>
					<altitudeMode>relativeToGround</altitudeMode>
					<coordinates>145.25,-38.0833,464474.000000</coordinates>
					<extrude>1</extrude>
				</Point>
			</Placemark>
			<Placemark>
				<name>Cremorne, AUSTRALIA: 2 hits</name>
				<styleUrl>#sphere_icon</styleUrl>
				<Point>
					<altitudeMode>relativeToGround</altitudeMode>
					<coordinates>149.2,-21.1333,245391.000000</coordinates>
					<extrude>1</extrude>
				</Point>
			</Placemark>
			<Placemark>
				<name>Cronulla, AUSTRALIA: 2 hits</name>
				<styleUrl>#sphere_icon</styleUrl>
				<Point>
					<altitudeMode>relativeToGround</altitudeMode>
					<coordinates>151.15,-34.05,245391.000000</coordinates>
					<extrude>1</extrude>
				</Point>
			</Placemark>
			<Placemark>
				<name>Croydon, AUSTRALIA: 9 hits</name>
				<styleUrl>#sphere_icon</styleUrl>
				<Point>
					<altitudeMode>relativeToGround</altitudeMode>
					<coordinates>142.233,-18.2167,514317.000000</coordinates>
					<extrude>1</extrude>
				</Point>
			</Placemark>
			<Placemark>
				<name>Crystal Creek, AUSTRALIA: 8 hits</name>
				<styleUrl>#sphere_icon</styleUrl>
				<Point>
					<altitudeMode>relativeToGround</altitudeMode>
					<coordinates>153.333,-28.3167,490783.000000</coordinates>
					<extrude>1</extrude>
				</Point>
			</Placemark>
			<Placemark>
				<name>Currabubula, AUSTRALIA: 7 hits</name>
				<styleUrl>#sphere_icon</styleUrl>
				<Point>
					<altitudeMode>relativeToGround</altitudeMode>
					<coordinates>150.733,-31.2667,464474.000000</coordinates>
					<extrude>1</extrude>
				</Point>
			</Placemark>
			<Placemark>
				<name>Dandenong, AUSTRALIA: 4 hits</name>
				<styleUrl>#sphere_icon</styleUrl>
				<Point>
					<altitudeMode>relativeToGround</altitudeMode>
					<coordinates>145.2,-37.9833,359492.000000</coordinates>
					<extrude>1</extrude>
				</Point>
			</Placemark>
			<Placemark>
				<name>Darwin, AUSTRALIA: 67 hits</name>
				<styleUrl>#sphere_icon</styleUrl>
				<Point>
					<altitudeMode>relativeToGround</altitudeMode>
					<coordinates>130.85,-12.4667,942491.000000</coordinates>
					<extrude>1</extrude>
				</Point>
			</Placemark>
			<Placemark>
				<name>Daylesford, AUSTRALIA: 2 hits</name>
				<styleUrl>#sphere_icon</styleUrl>
				<Point>
					<altitudeMode>relativeToGround</altitudeMode>
					<coordinates>144.15,-37.35,245391.000000</coordinates>
					<extrude>1</extrude>
				</Point>
			</Placemark>
			<Placemark>
				<name>Deception Bay, AUSTRALIA: 1 hits</name>
				<styleUrl>#sphere_icon</styleUrl>
				<Point>
					<altitudeMode>relativeToGround</altitudeMode>
					<coordinates>153.033,-27.2,154824.000000</coordinates>
					<extrude>1</extrude>
				</Point>
			</Placemark>
			<Placemark>
				<name>Devonport, AUSTRALIA: 2 hits</name>
				<styleUrl>#sphere_icon</styleUrl>
				<Point>
					<altitudeMode>relativeToGround</altitudeMode>
					<coordinates>146.35,-41.1667,245391.000000</coordinates>
					<extrude>1</extrude>
				</Point>
			</Placemark>
			<Placemark>
				<name>Dilga, AUSTRALIA: 36 hits</name>
				<styleUrl>#sphere_icon</styleUrl>
				<Point>
					<altitudeMode>relativeToGround</altitudeMode>
					<coordinates>148.617,-32.9333,806553.000000</coordinates>
					<extrude>1</extrude>
				</Point>
			</Placemark>
			<Placemark>
				<name>Doncaster, AUSTRALIA: 4 hits</name>
				<styleUrl>#sphere_icon</styleUrl>
				<Point>
					<altitudeMode>relativeToGround</altitudeMode>
					<coordinates>145.133,-37.7833,359492.000000</coordinates>
					<extrude>1</extrude>
				</Point>
			</Placemark>
			<Placemark>
				<name>Dubbo, AUSTRALIA: 8 hits</name>
				<styleUrl>#sphere_icon</styleUrl>
				<Point>
					<altitudeMode>relativeToGround</altitudeMode>
					<coordinates>148.6,-32.25,490783.000000</coordinates>
					<extrude>1</extrude>
				</Point>
			</Placemark>
			<Placemark>
				<name>Dunnee, AUSTRALIA: 10 hits</name>
				<styleUrl>#sphere_icon</styleUrl>
				<Point>
					<altitudeMode>relativeToGround</altitudeMode>
					<coordinates>150.433,-30.2,535606.000000</coordinates>
					<extrude>1</extrude>
				</Point>
			</Placemark>
			<Placemark>
				<name>Dunolly, AUSTRALIA: 3 hits</name>
				<styleUrl>#sphere_icon</styleUrl>
				<Point>
					<altitudeMode>relativeToGround</altitudeMode>
					<coordinates>143.733,-36.85,309649.000000</coordinates>
					<extrude>1</extrude>
				</Point>
			</Placemark>
			<Placemark>
				<name>East Burwood, AUSTRALIA: 4 hits</name>
				<styleUrl>#sphere_icon</styleUrl>
				<Point>
					<altitudeMode>relativeToGround</altitudeMode>
					<coordinates>145.15,-37.85,359492.000000</coordinates>
					<extrude>1</extrude>
				</Point>
			</Placemark>
			<Placemark>
				<name>Elwood, AUSTRALIA: 20 hits</name>
				<styleUrl>#sphere_icon</styleUrl>
				<Point>
					<altitudeMode>relativeToGround</altitudeMode>
					<coordinates>144.983,-37.8833,680040.000000</coordinates>
					<extrude>1</extrude>
				</Point>
			</Placemark>
			<Placemark>
				<name>Engadine, AUSTRALIA: 31 hits</name>
				<styleUrl>#sphere_icon</styleUrl>
				<Point>
					<altitudeMode>relativeToGround</altitudeMode>
					<coordinates>151.017,-34.0667,774124.000000</coordinates>
					<extrude>1</extrude>
				</Point>
			</Placemark>
			<Placemark>
				<name>Essendon, AUSTRALIA: 2 hits</name>
				<styleUrl>#sphere_icon</styleUrl>
				<Point>
					<altitudeMode>relativeToGround</altitudeMode>
					<coordinates>144.917,-37.7667,245391.000000</coordinates>
					<extrude>1</extrude>
				</Point>
			</Placemark>
			<Placemark>
				<name>Fairfield, AUSTRALIA: 4 hits</name>
				<styleUrl>#sphere_icon</styleUrl>
				<Point>
					<altitudeMode>relativeToGround</altitudeMode>
					<coordinates>150.95,-33.8667,359492.000000</coordinates>
					<extrude>1</extrude>
				</Point>
			</Placemark>
			<Placemark>
				<name>Fern Tree Gully, AUSTRALIA: 6 hits</name>
				<styleUrl>#sphere_icon</styleUrl>
				<Point>
					<altitudeMode>relativeToGround</altitudeMode>
					<coordinates>145.3,-37.8833,434648.000000</coordinates>
					<extrude>1</extrude>
				</Point>
			</Placemark>
			<Placemark>
				<name>Fitzroy, AUSTRALIA: 1 hits</name>
				<styleUrl>#sphere_icon</styleUrl>
				<Point>
					<altitudeMode>relativeToGround</altitudeMode>
					<coordinates>125.583,-18.1833,154824.000000</coordinates>
					<extrude>1</extrude>
				</Point>
			</Placemark>
			<Placemark>
				<name>Frankston, AUSTRALIA: 28 hits</name>
				<styleUrl>#sphere_icon</styleUrl>
				<Point>
					<altitudeMode>relativeToGround</altitudeMode>
					<coordinates>145.117,-38.1333,752136.000000</coordinates>
					<extrude>1</extrude>
				</Point>
			</Placemark>
			<Placemark>
				<name>Fremantle, AUSTRALIA: 28 hits</name>
				<styleUrl>#sphere_icon</styleUrl>
				<Point>
					<altitudeMode>relativeToGround</altitudeMode>
					<coordinates>115.767,-32.05,752136.000000</coordinates>
					<extrude>1</extrude>
				</Point>
			</Placemark>
			<Placemark>
				<name>Gawler, AUSTRALIA: 4 hits</name>
				<styleUrl>#sphere_icon</styleUrl>
				<Point>
					<altitudeMode>relativeToGround</altitudeMode>
					<coordinates>138.733,-34.6,359492.000000</coordinates>
					<extrude>1</extrude>
				</Point>
			</Placemark>
			<Placemark>
				<name>Geelong, AUSTRALIA: 49 hits</name>
				<styleUrl>#sphere_icon</styleUrl>
				<Point>
					<altitudeMode>relativeToGround</altitudeMode>
					<coordinates>144.35,-38.1333,873809.000000</coordinates>
					<extrude>1</extrude>
				</Point>
			</Placemark>
			<Placemark>
				<name>Geraldton, AUSTRALIA: 1 hits</name>
				<styleUrl>#sphere_icon</styleUrl>
				<Point>
					<altitudeMode>relativeToGround</altitudeMode>
					<coordinates>146.033,-17.5333,154824.000000</coordinates>
					<extrude>1</extrude>
				</Point>
			</Placemark>
			<Placemark>
				<name>Gladstone, AUSTRALIA: 61 hits</name>
				<styleUrl>#sphere_icon</styleUrl>
				<Point>
					<altitudeMode>relativeToGround</altitudeMode>
					<coordinates>151.25,-23.85,921858.000000</coordinates>
					<extrude>1</extrude>
				</Point>
			</Placemark>
			<Placemark>
				<name>Glengarry, AUSTRALIA: 3 hits</name>
				<styleUrl>#sphere_icon</styleUrl>
				<Point>
					<altitudeMode>relativeToGround</altitudeMode>
					<coordinates>146.567,-38.1167,309649.000000</coordinates>
					<extrude>1</extrude>
				</Point>
			</Placemark>
			<Placemark>
				<name>Glenreagh, AUSTRALIA: 25 hits</name>
				<styleUrl>#sphere_icon</styleUrl>
				<Point>
					<altitudeMode>relativeToGround</altitudeMode>
					<coordinates>152.967,-30.05,727745.000000</coordinates>
					<extrude>1</extrude>
				</Point>
			</Placemark>
			<Placemark>
				<name>Gold Coast, AUSTRALIA: 294 hits</name>
				<styleUrl>#sphere_icon</styleUrl>
				<Point>
					<altitudeMode>relativeToGround</altitudeMode>
					<coordinates>153.417,-27.9667,1270272.000000</coordinates>
					<extrude>1</extrude>
				</Point>
			</Placemark>
			<Placemark>
				<name>Gosford, AUSTRALIA: 16 hits</name>
				<styleUrl>#sphere_icon</styleUrl>
				<Point>
					<altitudeMode>relativeToGround</altitudeMode>
					<coordinates>151.35,-33.4333,632841.000000</coordinates>
					<extrude>1</extrude>
				</Point>
			</Placemark>
			<Placemark>
				<name>Goulburn, AUSTRALIA: 3 hits</name>
				<styleUrl>#sphere_icon</styleUrl>
				<Point>
					<altitudeMode>relativeToGround</altitudeMode>
					<coordinates>149.717,-34.75,309649.000000</coordinates>
					<extrude>1</extrude>
				</Point>
			</Placemark>
			<Placemark>
				<name>Grafton, AUSTRALIA: 7 hits</name>
				<styleUrl>#sphere_icon</styleUrl>
				<Point>
					<altitudeMode>relativeToGround</altitudeMode>
					<coordinates>152.933,-29.6833,464474.000000</coordinates>
					<extrude>1</extrude>
				</Point>
			</Placemark>
			<Placemark>
				<name>Green Point, AUSTRALIA: 15 hits</name>
				<styleUrl>#sphere_icon</styleUrl>
				<Point>
					<altitudeMode>relativeToGround</altitudeMode>
					<coordinates>150.783,-35.1,619299.000000</coordinates>
					<extrude>1</extrude>
				</Point>
			</Placemark>
			<Placemark>
				<name>Greenvale, AUSTRALIA: 7 hits</name>
				<styleUrl>#sphere_icon</styleUrl>
				<Point>
					<altitudeMode>relativeToGround</altitudeMode>
					<coordinates>144.867,-37.6333,464474.000000</coordinates>
					<extrude>1</extrude>
				</Point>
			</Placemark>
			<Placemark>
				<name>Griffith, AUSTRALIA: 3 hits</name>
				<styleUrl>#sphere_icon</styleUrl>
				<Point>
					<altitudeMode>relativeToGround</altitudeMode>
					<coordinates>146.05,-34.2833,309649.000000</coordinates>
					<extrude>1</extrude>
				</Point>
			</Placemark>
			<Placemark>
				<name>Gunnedah, AUSTRALIA: 9 hits</name>
				<styleUrl>#sphere_icon</styleUrl>
				<Point>
					<altitudeMode>relativeToGround</altitudeMode>
					<coordinates>150.25,-30.9833,514317.000000</coordinates>
					<extrude>1</extrude>
				</Point>
			</Placemark>
			<Placemark>
				<name>Gymea, AUSTRALIA: 2 hits</name>
				<styleUrl>#sphere_icon</styleUrl>
				<Point>
					<altitudeMode>relativeToGround</altitudeMode>
					<coordinates>151.083,-34.0333,245391.000000</coordinates>
					<extrude>1</extrude>
				</Point>
			</Placemark>
			<Placemark>
				<name>Hawthorn, AUSTRALIA: 4 hits</name>
				<styleUrl>#sphere_icon</styleUrl>
				<Point>
					<altitudeMode>relativeToGround</altitudeMode>
					<coordinates>145.033,-37.8333,359492.000000</coordinates>
					<extrude>1</extrude>
				</Point>
			</Placemark>
			<Placemark>
				<name>Heathfield, AUSTRALIA: 22 hits</name>
				<styleUrl>#sphere_icon</styleUrl>
				<Point>
					<altitudeMode>relativeToGround</altitudeMode>
					<coordinates>138.717,-35.0167,700360.000000</coordinates>
					<extrude>1</extrude>
				</Point>
			</Placemark>
			<Placemark>
				<name>Hervey Bay, AUSTRALIA: 3 hits</name>
				<styleUrl>#sphere_icon</styleUrl>
				<Point>
					<altitudeMode>relativeToGround</altitudeMode>
					<coordinates>152.85,-25.35,309649.000000</coordinates>
					<extrude>1</extrude>
				</Point>
			</Placemark>
			<Placemark>
				<name>Hobart, AUSTRALIA: 167 hits</name>
				<styleUrl>#sphere_icon</styleUrl>
				<Point>
					<altitudeMode>relativeToGround</altitudeMode>
					<coordinates>147.317,-42.8833,1144515.000000</coordinates>
					<extrude>1</extrude>
				</Point>
			</Placemark>
			<Placemark>
				<name>Hope Island, AUSTRALIA: 1 hits</name>
				<styleUrl>#sphere_icon</styleUrl>
				<Point>
					<altitudeMode>relativeToGround</altitudeMode>
					<coordinates>153.367,-27.8667,154824.000000</coordinates>
					<extrude>1</extrude>
				</Point>
			</Placemark>
			<Placemark>
				<name>Hornsby, AUSTRALIA: 26 hits</name>
				<styleUrl>#sphere_icon</styleUrl>
				<Point>
					<altitudeMode>relativeToGround</altitudeMode>
					<coordinates>151.1,-33.7,736175.000000</coordinates>
					<extrude>1</extrude>
				</Point>
			</Placemark>
			<Placemark>
				<name>Ipswich, AUSTRALIA: 1 hits</name>
				<styleUrl>#sphere_icon</styleUrl>
				<Point>
					<altitudeMode>relativeToGround</altitudeMode>
					<coordinates>152.767,-27.6167,154824.000000</coordinates>
					<extrude>1</extrude>
				</Point>
			</Placemark>
			<Placemark>
				<name>Kalgoorlie, AUSTRALIA: 8 hits</name>
				<styleUrl>#sphere_icon</styleUrl>
				<Point>
					<altitudeMode>relativeToGround</altitudeMode>
					<coordinates>121.467,-30.75,490783.000000</coordinates>
					<extrude>1</extrude>
				</Point>
			</Placemark>
			<Placemark>
				<name>Katoomba, AUSTRALIA: 3 hits</name>
				<styleUrl>#sphere_icon</styleUrl>
				<Point>
					<altitudeMode>relativeToGround</altitudeMode>
					<coordinates>150.3,-33.7,309649.000000</coordinates>
					<extrude>1</extrude>
				</Point>
			</Placemark>
			<Placemark>
				<name>Kempsey, AUSTRALIA: 37 hits</name>
				<styleUrl>#sphere_icon</styleUrl>
				<Point>
					<altitudeMode>relativeToGround</altitudeMode>
					<coordinates>152.833,-31.0833,812510.000000</coordinates>
					<extrude>1</extrude>
				</Point>
			</Placemark>
			<Placemark>
				<name>Kenmore, AUSTRALIA: 5 hits</name>
				<styleUrl>#sphere_icon</styleUrl>
				<Point>
					<altitudeMode>relativeToGround</altitudeMode>
					<coordinates>149.75,-34.7167,400216.000000</coordinates>
					<extrude>1</extrude>
				</Point>
			</Placemark>
			<Placemark>
				<name>Kiama, AUSTRALIA: 4 hits</name>
				<styleUrl>#sphere_icon</styleUrl>
				<Point>
					<altitudeMode>relativeToGround</altitudeMode>
					<coordinates>150.867,-34.6833,359492.000000</coordinates>
					<extrude>1</extrude>
				</Point>
			</Placemark>
			<Placemark>
				<name>Kingston, AUSTRALIA: 2 hits</name>
				<styleUrl>#sphere_icon</styleUrl>
				<Point>
					<altitudeMode>relativeToGround</altitudeMode>
					<coordinates>153.117,-27.6667,245391.000000</coordinates>
					<extrude>1</extrude>
				</Point>
			</Placemark>
			<Placemark>
				<name>Kyabram, AUSTRALIA: 5 hits</name>
				<styleUrl>#sphere_icon</styleUrl>
				<Point>
					<altitudeMode>relativeToGround</altitudeMode>
					<coordinates>145.05,-36.3167,400216.000000</coordinates>
					<extrude>1</extrude>
				</Point>
			</Placemark>
			<Placemark>
				<name>Kyneton, AUSTRALIA: 1 hits</name>
				<styleUrl>#sphere_icon</styleUrl>
				<Point>
					<altitudeMode>relativeToGround</altitudeMode>
					<coordinates>144.433,-37.25,154824.000000</coordinates>
					<extrude>1</extrude>
				</Point>
			</Placemark>
			<Placemark>
				<name>Laidley, AUSTRALIA: 4 hits</name>
				<styleUrl>#sphere_icon</styleUrl>
				<Point>
					<altitudeMode>relativeToGround</altitudeMode>
					<coordinates>152.383,-27.6333,359492.000000</coordinates>
					<extrude>1</extrude>
				</Point>
			</Placemark>
			<Placemark>
				<name>Lane Cove, AUSTRALIA: 3 hits</name>
				<styleUrl>#sphere_icon</styleUrl>
				<Point>
					<altitudeMode>relativeToGround</altitudeMode>
					<coordinates>151.167,-33.8167,309649.000000</coordinates>
					<extrude>1</extrude>
				</Point>
			</Placemark>
			<Placemark>
				<name>Launceston, AUSTRALIA: 136 hits</name>
				<styleUrl>#sphere_icon</styleUrl>
				<Point>
					<altitudeMode>relativeToGround</altitudeMode>
					<coordinates>147.133,-41.4167,1098952.000000</coordinates>
					<extrude>1</extrude>
				</Point>
			</Placemark>
			<Placemark>
				<name>Lidcombe, AUSTRALIA: 2 hits</name>
				<styleUrl>#sphere_icon</styleUrl>
				<Point>
					<altitudeMode>relativeToGround</altitudeMode>
					<coordinates>151.033,-33.8667,245391.000000</coordinates>
					<extrude>1</extrude>
				</Point>
			</Placemark>
			<Placemark>
				<name>Linton, AUSTRALIA: 121 hits</name>
				<styleUrl>#sphere_icon</styleUrl>
				<Point>
					<altitudeMode>relativeToGround</altitudeMode>
					<coordinates>143.567,-37.6833,1073051.000000</coordinates>
					<extrude>1</extrude>
				</Point>
			</Placemark>
			<Placemark>
				<name>Lismore, AUSTRALIA: 75 hits</name>
				<styleUrl>#sphere_icon</styleUrl>
				<Point>
					<altitudeMode>relativeToGround</altitudeMode>
					<coordinates>153.267,-28.8,967335.000000</coordinates>
					<extrude>1</extrude>
				</Point>
			</Placemark>
			<Placemark>
				<name>Liverpool, AUSTRALIA: 67 hits</name>
				<styleUrl>#sphere_icon</styleUrl>
				<Point>
					<altitudeMode>relativeToGround</altitudeMode>
					<coordinates>150.933,-33.9,942491.000000</coordinates>
					<extrude>1</extrude>
				</Point>
			</Placemark>
			<Placemark>
				<name>Lower Templestowe, AUSTRALIA: 3 hits</name>
				<styleUrl>#sphere_icon</styleUrl>
				<Point>
					<altitudeMode>relativeToGround</altitudeMode>
					<coordinates>145.117,-37.7667,309649.000000</coordinates>
					<extrude>1</extrude>
				</Point>
			</Placemark>
			<Placemark>
				<name>Mackay, AUSTRALIA: 15 hits</name>
				<styleUrl>#sphere_icon</styleUrl>
				<Point>
					<altitudeMode>relativeToGround</altitudeMode>
					<coordinates>149.2,-21.15,619299.000000</coordinates>
					<extrude>1</extrude>
				</Point>
			</Placemark>
			<Placemark>
				<name>Mandurah, AUSTRALIA: 3 hits</name>
				<styleUrl>#sphere_icon</styleUrl>
				<Point>
					<altitudeMode>relativeToGround</altitudeMode>
					<coordinates>115.7,-32.55,309649.000000</coordinates>
					<extrude>1</extrude>
				</Point>
			</Placemark>
			<Placemark>
				<name>Manly, AUSTRALIA: 1 hits</name>
				<styleUrl>#sphere_icon</styleUrl>
				<Point>
					<altitudeMode>relativeToGround</altitudeMode>
					<coordinates>153.183,-27.4667,154824.000000</coordinates>
					<extrude>1</extrude>
				</Point>
			</Placemark>
			<Placemark>
				<name>Manning, AUSTRALIA: 109 hits</name>
				<styleUrl>#sphere_icon</styleUrl>
				<Point>
					<altitudeMode>relativeToGround</altitudeMode>
					<coordinates>115.85,-32.0,1049923.000000</coordinates>
					<extrude>1</extrude>
				</Point>
			</Placemark>
			<Placemark>
				<name>Marion, AUSTRALIA: 26 hits</name>
				<styleUrl>#sphere_icon</styleUrl>
				<Point>
					<altitudeMode>relativeToGround</altitudeMode>
					<coordinates>138.567,-35.0167,736175.000000</coordinates>
					<extrude>1</extrude>
				</Point>
			</Placemark>
			<Placemark>
				<name>Maroochydore, AUSTRALIA: 13 hits</name>
				<styleUrl>#sphere_icon</styleUrl>
				<Point>
					<altitudeMode>relativeToGround</altitudeMode>
					<coordinates>153.12,-26.68,589473.000000</coordinates>
					<extrude>1</extrude>
				</Point>
			</Placemark>
			<Placemark>
				<name>Marsden, AUSTRALIA: 1 hits</name>
				<styleUrl>#sphere_icon</styleUrl>
				<Point>
					<altitudeMode>relativeToGround</altitudeMode>
					<coordinates>147.533,-33.75,154824.000000</coordinates>
					<extrude>1</extrude>
				</Point>
			</Placemark>
			<Placemark>
				<name>Maryborough, AUSTRALIA: 37 hits</name>
				<styleUrl>#sphere_icon</styleUrl>
				<Point>
					<altitudeMode>relativeToGround</altitudeMode>
					<coordinates>152.7,-25.5333,812510.000000</coordinates>
					<extrude>1</extrude>
				</Point>
			</Placemark>
			<Placemark>
				<name>Matcham, AUSTRALIA: 1 hits</name>
				<styleUrl>#sphere_icon</styleUrl>
				<Point>
					<altitudeMode>relativeToGround</altitudeMode>
					<coordinates>151.417,-33.4167,154824.000000</coordinates>
					<extrude>1</extrude>
				</Point>
			</Placemark>
			<Placemark>
				<name>Medowie, AUSTRALIA: 1 hits</name>
				<styleUrl>#sphere_icon</styleUrl>
				<Point>
					<altitudeMode>relativeToGround</altitudeMode>
					<coordinates>151.867,-32.7333,154824.000000</coordinates>
					<extrude>1</extrude>
				</Point>
			</Placemark>
			<Placemark>
				<name>Melbourne, AUSTRALIA: 4572 hits</name>
				<styleUrl>#sphere_icon</styleUrl>
				<Point>
					<altitudeMode>relativeToGround</altitudeMode>
					<coordinates>144.967,-37.7833,1882505.000000</coordinates>
					<extrude>1</extrude>
				</Point>
			</Placemark>
			<Placemark>
				<name>Melton, AUSTRALIA: 56 hits</name>
				<styleUrl>#sphere_icon</styleUrl>
				<Point>
					<altitudeMode>relativeToGround</altitudeMode>
					<coordinates>144.583,-37.6833,903077.000000</coordinates>
					<extrude>1</extrude>
				</Point>
			</Placemark>
			<Placemark>
				<name>Mildura, AUSTRALIA: 59 hits</name>
				<styleUrl>#sphere_icon</styleUrl>
				<Point>
					<altitudeMode>relativeToGround</altitudeMode>
					<coordinates>142.15,-34.2,914534.000000</coordinates>
					<extrude>1</extrude>
				</Point>
			</Placemark>
			<Placemark>
				<name>Milton, AUSTRALIA: 39 hits</name>
				<styleUrl>#sphere_icon</styleUrl>
				<Point>
					<altitudeMode>relativeToGround</altitudeMode>
					<coordinates>150.433,-35.3167,823967.000000</coordinates>
					<extrude>1</extrude>
				</Point>
			</Placemark>
			<Placemark>
				<name>Minto, AUSTRALIA: 2 hits</name>
				<styleUrl>#sphere_icon</styleUrl>
				<Point>
					<altitudeMode>relativeToGround</altitudeMode>
					<coordinates>150.85,-34.0333,245391.000000</coordinates>
					<extrude>1</extrude>
				</Point>
			</Placemark>
			<Placemark>
				<name>Mitchelton, AUSTRALIA: 1 hits</name>
				<styleUrl>#sphere_icon</styleUrl>
				<Point>
					<altitudeMode>relativeToGround</altitudeMode>
					<coordinates>152.967,-27.4167,154824.000000</coordinates>
					<extrude>1</extrude>
				</Point>
			</Placemark>
			<Placemark>
				<name>Moltema, AUSTRALIA: 3 hits</name>
				<styleUrl>#sphere_icon</styleUrl>
				<Point>
					<altitudeMode>relativeToGround</altitudeMode>
					<coordinates>146.533,-41.45,309649.000000</coordinates>
					<extrude>1</extrude>
				</Point>
			</Placemark>
			<Placemark>
				<name>Montville, AUSTRALIA: 1 hits</name>
				<styleUrl>#sphere_icon</styleUrl>
				<Point>
					<altitudeMode>relativeToGround</altitudeMode>
					<coordinates>152.883,-26.6833,154824.000000</coordinates>
					<extrude>1</extrude>
				</Point>
			</Placemark>
			<Placemark>
				<name>Mooloolaba, AUSTRALIA: 2 hits</name>
				<styleUrl>#sphere_icon</styleUrl>
				<Point>
					<altitudeMode>relativeToGround</altitudeMode>
					<coordinates>153.117,-26.6833,245391.000000</coordinates>
					<extrude>1</extrude>
				</Point>
			</Placemark>
			<Placemark>
				<name>Mooloolah, AUSTRALIA: 3 hits</name>
				<styleUrl>#sphere_icon</styleUrl>
				<Point>
					<altitudeMode>relativeToGround</altitudeMode>
					<coordinates>152.967,-26.7667,309649.000000</coordinates>
					<extrude>1</extrude>
				</Point>
			</Placemark>
			<Placemark>
				<name>Moonta, AUSTRALIA: 11 hits</name>
				<styleUrl>#sphere_icon</styleUrl>
				<Point>
					<altitudeMode>relativeToGround</altitudeMode>
					<coordinates>137.583,-34.0667,555041.000000</coordinates>
					<extrude>1</extrude>
				</Point>
			</Placemark>
			<Placemark>
				<name>Moorabbin, AUSTRALIA: 5 hits</name>
				<styleUrl>#sphere_icon</styleUrl>
				<Point>
					<altitudeMode>relativeToGround</altitudeMode>
					<coordinates>145.033,-37.9333,400216.000000</coordinates>
					<extrude>1</extrude>
				</Point>
			</Placemark>
			<Placemark>
				<name>Mornington, AUSTRALIA: 1 hits</name>
				<styleUrl>#sphere_icon</styleUrl>
				<Point>
					<altitudeMode>relativeToGround</altitudeMode>
					<coordinates>145.05,-38.2167,154824.000000</coordinates>
					<extrude>1</extrude>
				</Point>
			</Placemark>
			<Placemark>
				<name>Morwell, AUSTRALIA: 32 hits</name>
				<styleUrl>#sphere_icon</styleUrl>
				<Point>
					<altitudeMode>relativeToGround</altitudeMode>
					<coordinates>146.4,-38.2333,780998.000000</coordinates>
					<extrude>1</extrude>
				</Point>
			</Placemark>
			<Placemark>
				<name>Mosman, AUSTRALIA: 17 hits</name>
				<styleUrl>#sphere_icon</styleUrl>
				<Point>
					<altitudeMode>relativeToGround</altitudeMode>
					<coordinates>151.233,-33.8167,645608.000000</coordinates>
					<extrude>1</extrude>
				</Point>
			</Placemark>
			<Placemark>
				<name>Mount Evelyn, AUSTRALIA: 7 hits</name>
				<styleUrl>#sphere_icon</styleUrl>
				<Point>
					<altitudeMode>relativeToGround</altitudeMode>
					<coordinates>145.383,-37.7833,464474.000000</coordinates>
					<extrude>1</extrude>
				</Point>
			</Placemark>
			<Placemark>
				<name>Mount Gambier, AUSTRALIA: 1 hits</name>
				<styleUrl>#sphere_icon</styleUrl>
				<Point>
					<altitudeMode>relativeToGround</altitudeMode>
					<coordinates>140.767,-37.8333,154824.000000</coordinates>
					<extrude>1</extrude>
				</Point>
			</Placemark>
			<Placemark>
				<name>Mount Isa, AUSTRALIA: 16 hits</name>
				<styleUrl>#sphere_icon</styleUrl>
				<Point>
					<altitudeMode>relativeToGround</altitudeMode>
					<coordinates>139.5,-20.7333,632841.000000</coordinates>
					<extrude>1</extrude>
				</Point>
			</Placemark>
			<Placemark>
				<name>Mount Martha, AUSTRALIA: 5 hits</name>
				<styleUrl>#sphere_icon</styleUrl>
				<Point>
					<altitudeMode>relativeToGround</altitudeMode>
					<coordinates>145.017,-38.2667,400216.000000</coordinates>
					<extrude>1</extrude>
				</Point>
			</Placemark>
			<Placemark>
				<name>Mount Waverley, AUSTRALIA: 12 hits</name>
				<styleUrl>#sphere_icon</styleUrl>
				<Point>
					<altitudeMode>relativeToGround</altitudeMode>
					<coordinates>145.133,-37.8833,572920.000000</coordinates>
					<extrude>1</extrude>
				</Point>
			</Placemark>
			<Placemark>
				<name>Muchea, AUSTRALIA: 26 hits</name>
				<styleUrl>#sphere_icon</styleUrl>
				<Point>
					<altitudeMode>relativeToGround</altitudeMode>
					<coordinates>115.983,-31.5833,736175.000000</coordinates>
					<extrude>1</extrude>
				</Point>
			</Placemark>
			<Placemark>
				<name>Mullumbimby, AUSTRALIA: 9 hits</name>
				<styleUrl>#sphere_icon</styleUrl>
				<Point>
					<altitudeMode>relativeToGround</altitudeMode>
					<coordinates>153.5,-28.55,514317.000000</coordinates>
					<extrude>1</extrude>
				</Point>
			</Placemark>
			<Placemark>
				<name>Myrtleford, AUSTRALIA: 1 hits</name>
				<styleUrl>#sphere_icon</styleUrl>
				<Point>
					<altitudeMode>relativeToGround</altitudeMode>
					<coordinates>146.733,-36.55,154824.000000</coordinates>
					<extrude>1</extrude>
				</Point>
			</Placemark>
			<Placemark>
				<name>Nambour, AUSTRALIA: 1 hits</name>
				<styleUrl>#sphere_icon</styleUrl>
				<Point>
					<altitudeMode>relativeToGround</altitudeMode>
					<coordinates>152.95,-26.6333,154824.000000</coordinates>
					<extrude>1</extrude>
				</Point>
			</Placemark>
			<Placemark>
				<name>Nambucca Heads, AUSTRALIA: 1 hits</name>
				<styleUrl>#sphere_icon</styleUrl>
				<Point>
					<altitudeMode>relativeToGround</altitudeMode>
					<coordinates>153.0,-30.65,154824.000000</coordinates>
					<extrude>1</extrude>
				</Point>
			</Placemark>
			<Placemark>
				<name>Narellan, AUSTRALIA: 9 hits</name>
				<styleUrl>#sphere_icon</styleUrl>
				<Point>
					<altitudeMode>relativeToGround</altitudeMode>
					<coordinates>150.733,-34.0333,514317.000000</coordinates>
					<extrude>1</extrude>
				</Point>
			</Placemark>
			<Placemark>
				<name>Narre Warren, AUSTRALIA: 13 hits</name>
				<styleUrl>#sphere_icon</styleUrl>
				<Point>
					<altitudeMode>relativeToGround</altitudeMode>
					<coordinates>145.3,-38.0333,589473.000000</coordinates>
					<extrude>1</extrude>
				</Point>
			</Placemark>
			<Placemark>
				<name>Nerang, AUSTRALIA: 6 hits</name>
				<styleUrl>#sphere_icon</styleUrl>
				<Point>
					<altitudeMode>relativeToGround</altitudeMode>
					<coordinates>153.333,-27.9833,434648.000000</coordinates>
					<extrude>1</extrude>
				</Point>
			</Placemark>
			<Placemark>
				<name>Newcastle, AUSTRALIA: 77 hits</name>
				<styleUrl>#sphere_icon</styleUrl>
				<Point>
					<altitudeMode>relativeToGround</altitudeMode>
					<coordinates>151.75,-32.9167,973137.000000</coordinates>
					<extrude>1</extrude>
				</Point>
			</Placemark>
			<Placemark>
				<name>Newlyn, AUSTRALIA: 2 hits</name>
				<styleUrl>#sphere_icon</styleUrl>
				<Point>
					<altitudeMode>relativeToGround</altitudeMode>
					<coordinates>143.983,-37.4167,245391.000000</coordinates>
					<extrude>1</extrude>
				</Point>
			</Placemark>
			<Placemark>
				<name>Newmarket, AUSTRALIA: 1 hits</name>
				<styleUrl>#sphere_icon</styleUrl>
				<Point>
					<altitudeMode>relativeToGround</altitudeMode>
					<coordinates>153.017,-27.4333,154824.000000</coordinates>
					<extrude>1</extrude>
				</Point>
			</Placemark>
			<Placemark>
				<name>Newtown, AUSTRALIA: 10 hits</name>
				<styleUrl>#sphere_icon</styleUrl>
				<Point>
					<altitudeMode>relativeToGround</altitudeMode>
					<coordinates>143.65,-37.7,535606.000000</coordinates>
					<extrude>1</extrude>
				</Point>
			</Placemark>
			<Placemark>
				<name>Nimmitabel, AUSTRALIA: 67 hits</name>
				<styleUrl>#sphere_icon</styleUrl>
				<Point>
					<altitudeMode>relativeToGround</altitudeMode>
					<coordinates>149.283,-36.5167,942491.000000</coordinates>
					<extrude>1</extrude>
				</Point>
			</Placemark>
			<Placemark>
				<name>Noosa Heads, AUSTRALIA: 1 hits</name>
				<styleUrl>#sphere_icon</styleUrl>
				<Point>
					<altitudeMode>relativeToGround</altitudeMode>
					<coordinates>153.15,-26.3833,154824.000000</coordinates>
					<extrude>1</extrude>
				</Point>
			</Placemark>
			<Placemark>
				<name>Noosa, AUSTRALIA: 2 hits</name>
				<styleUrl>#sphere_icon</styleUrl>
				<Point>
					<altitudeMode>relativeToGround</altitudeMode>
					<coordinates>153.087,-26.3833,245391.000000</coordinates>
					<extrude>1</extrude>
				</Point>
			</Placemark>
			<Placemark>
				<name>North Ryde, AUSTRALIA: 1 hits</name>
				<styleUrl>#sphere_icon</styleUrl>
				<Point>
					<altitudeMode>relativeToGround</altitudeMode>
					<coordinates>151.117,-33.766,154824.000000</coordinates>
					<extrude>1</extrude>
				</Point>
			</Placemark>
			<Placemark>
				<name>North Sydney, AUSTRALIA: 7 hits</name>
				<styleUrl>#sphere_icon</styleUrl>
				<Point>
					<altitudeMode>relativeToGround</altitudeMode>
					<coordinates>151.217,-33.85,464474.000000</coordinates>
					<extrude>1</extrude>
				</Point>
			</Placemark>
			<Placemark>
				<name>North Turramurra, AUSTRALIA: 1 hits</name>
				<styleUrl>#sphere_icon</styleUrl>
				<Point>
					<altitudeMode>relativeToGround</altitudeMode>
					<coordinates>151.15,-33.7167,154824.000000</coordinates>
					<extrude>1</extrude>
				</Point>
			</Placemark>
			<Placemark>
				<name>Norwood, AUSTRALIA: 2 hits</name>
				<styleUrl>#sphere_icon</styleUrl>
				<Point>
					<altitudeMode>relativeToGround</altitudeMode>
					<coordinates>149.733,-34.6667,245391.000000</coordinates>
					<extrude>1</extrude>
				</Point>
			</Placemark>
			<Placemark>
				<name>Nowra, AUSTRALIA: 42 hits</name>
				<styleUrl>#sphere_icon</styleUrl>
				<Point>
					<altitudeMode>relativeToGround</altitudeMode>
					<coordinates>150.6,-34.8833,840121.000000</coordinates>
					<extrude>1</extrude>
				</Point>
			</Placemark>
			<Placemark>
				<name>Orange, AUSTRALIA: 5 hits</name>
				<styleUrl>#sphere_icon</styleUrl>
				<Point>
					<altitudeMode>relativeToGround</altitudeMode>
					<coordinates>149.1,-33.2833,400216.000000</coordinates>
					<extrude>1</extrude>
				</Point>
			</Placemark>
			<Placemark>
				<name>Palmwoods, AUSTRALIA: 5 hits</name>
				<styleUrl>#sphere_icon</styleUrl>
				<Point>
					<altitudeMode>relativeToGround</altitudeMode>
					<coordinates>152.967,-26.6833,400216.000000</coordinates>
					<extrude>1</extrude>
				</Point>
			</Placemark>
			<Placemark>
				<name>Parkerville, AUSTRALIA: 17 hits</name>
				<styleUrl>#sphere_icon</styleUrl>
				<Point>
					<altitudeMode>relativeToGround</altitudeMode>
					<coordinates>116.133,-31.8833,645608.000000</coordinates>
					<extrude>1</extrude>
				</Point>
			</Placemark>
			<Placemark>
				<name>Parramatta, AUSTRALIA: 1 hits</name>
				<styleUrl>#sphere_icon</styleUrl>
				<Point>
					<altitudeMode>relativeToGround</altitudeMode>
					<coordinates>151.0,-33.8167,154824.000000</coordinates>
					<extrude>1</extrude>
				</Point>
			</Placemark>
			<Placemark>
				<name>Pennant Hills, AUSTRALIA: 2 hits</name>
				<styleUrl>#sphere_icon</styleUrl>
				<Point>
					<altitudeMode>relativeToGround</altitudeMode>
					<coordinates>151.067,-33.7333,245391.000000</coordinates>
					<extrude>1</extrude>
				</Point>
			</Placemark>
			<Placemark>
				<name>Penrith, AUSTRALIA: 10 hits</name>
				<styleUrl>#sphere_icon</styleUrl>
				<Point>
					<altitudeMode>relativeToGround</altitudeMode>
					<coordinates>150.7,-33.75,535606.000000</coordinates>
					<extrude>1</extrude>
				</Point>
			</Placemark>
			<Placemark>
				<name>Perth, AUSTRALIA: 3147 hits</name>
				<styleUrl>#sphere_icon</styleUrl>
				<Point>
					<altitudeMode>relativeToGround</altitudeMode>
					<coordinates>115.867,-31.95,1799100.000000</coordinates>
					<extrude>1</extrude>
				</Point>
			</Placemark>
			<Placemark>
				<name>Petrie, AUSTRALIA: 2 hits</name>
				<styleUrl>#sphere_icon</styleUrl>
				<Point>
					<altitudeMode>relativeToGround</altitudeMode>
					<coordinates>152.983,-27.2667,245391.000000</coordinates>
					<extrude>1</extrude>
				</Point>
			</Placemark>
			<Placemark>
				<name>Pimpama, AUSTRALIA: 96 hits</name>
				<styleUrl>#sphere_icon</styleUrl>
				<Point>
					<altitudeMode>relativeToGround</altitudeMode>
					<coordinates>153.3,-27.8167,1021831.000000</coordinates>
					<extrude>1</extrude>
				</Point>
			</Placemark>
			<Placemark>
				<name>Point Cook, AUSTRALIA: 5 hits</name>
				<styleUrl>#sphere_icon</styleUrl>
				<Point>
					<altitudeMode>relativeToGround</altitudeMode>
					<coordinates>144.8,-37.9167,400216.000000</coordinates>
					<extrude>1</extrude>
				</Point>
			</Placemark>
			<Placemark>
				<name>Port Hedland, AUSTRALIA: 5 hits</name>
				<styleUrl>#sphere_icon</styleUrl>
				<Point>
					<altitudeMode>relativeToGround</altitudeMode>
					<coordinates>118.567,-20.3167,400216.000000</coordinates>
					<extrude>1</extrude>
				</Point>
			</Placemark>
			<Placemark>
				<name>Port Lincoln, AUSTRALIA: 9 hits</name>
				<styleUrl>#sphere_icon</styleUrl>
				<Point>
					<altitudeMode>relativeToGround</altitudeMode>
					<coordinates>135.867,-34.7333,514317.000000</coordinates>
					<extrude>1</extrude>
				</Point>
			</Placemark>
			<Placemark>
				<name>Port Macquarie, AUSTRALIA: 30 hits</name>
				<styleUrl>#sphere_icon</styleUrl>
				<Point>
					<altitudeMode>relativeToGround</altitudeMode>
					<coordinates>152.917,-31.4333,767033.000000</coordinates>
					<extrude>1</extrude>
				</Point>
			</Placemark>
			<Placemark>
				<name>Portsea, AUSTRALIA: 1 hits</name>
				<styleUrl>#sphere_icon</styleUrl>
				<Point>
					<altitudeMode>relativeToGround</altitudeMode>
					<coordinates>144.717,-38.3167,154824.000000</coordinates>
					<extrude>1</extrude>
				</Point>
			</Placemark>
			<Placemark>
				<name>Preston, AUSTRALIA: 3 hits</name>
				<styleUrl>#sphere_icon</styleUrl>
				<Point>
					<altitudeMode>relativeToGround</altitudeMode>
					<coordinates>145.017,-37.75,309649.000000</coordinates>
					<extrude>1</extrude>
				</Point>
			</Placemark>
			<Placemark>
				<name>Prospect, AUSTRALIA: 2 hits</name>
				<styleUrl>#sphere_icon</styleUrl>
				<Point>
					<altitudeMode>relativeToGround</altitudeMode>
					<coordinates>138.583,-34.8833,245391.000000</coordinates>
					<extrude>1</extrude>
				</Point>
			</Placemark>
			<Placemark>
				<name>Pullen Vale, AUSTRALIA: 17 hits</name>
				<styleUrl>#sphere_icon</styleUrl>
				<Point>
					<altitudeMode>relativeToGround</altitudeMode>
					<coordinates>152.883,-27.5333,645608.000000</coordinates>
					<extrude>1</extrude>
				</Point>
			</Placemark>
			<Placemark>
				<name>Quakers Hill, AUSTRALIA: 7 hits</name>
				<styleUrl>#sphere_icon</styleUrl>
				<Point>
					<altitudeMode>relativeToGround</altitudeMode>
					<coordinates>150.883,-33.7333,464474.000000</coordinates>
					<extrude>1</extrude>
				</Point>
			</Placemark>
			<Placemark>
				<name>Queanbeyan, AUSTRALIA: 4 hits</name>
				<styleUrl>#sphere_icon</styleUrl>
				<Point>
					<altitudeMode>relativeToGround</altitudeMode>
					<coordinates>149.233,-35.35,359492.000000</coordinates>
					<extrude>1</extrude>
				</Point>
			</Placemark>
			<Placemark>
				<name>Red Cliffs, AUSTRALIA: 4 hits</name>
				<styleUrl>#sphere_icon</styleUrl>
				<Point>
					<altitudeMode>relativeToGround</altitudeMode>
					<coordinates>142.183,-34.3167,359492.000000</coordinates>
					<extrude>1</extrude>
				</Point>
			</Placemark>
			<Placemark>
				<name>Redcliffe, AUSTRALIA: 44 hits</name>
				<styleUrl>#sphere_icon</styleUrl>
				<Point>
					<altitudeMode>relativeToGround</altitudeMode>
					<coordinates>153.117,-27.2333,850276.000000</coordinates>
					<extrude>1</extrude>
				</Point>
			</Placemark>
			<Placemark>
				<name>Regents Park, AUSTRALIA: 11 hits</name>
				<styleUrl>#sphere_icon</styleUrl>
				<Point>
					<altitudeMode>relativeToGround</altitudeMode>
					<coordinates>151.017,-33.8833,555041.000000</coordinates>
					<extrude>1</extrude>
				</Point>
			</Placemark>
			<Placemark>
				<name>Reynella, AUSTRALIA: 14 hits</name>
				<styleUrl>#sphere_icon</styleUrl>
				<Point>
					<altitudeMode>relativeToGround</altitudeMode>
					<coordinates>138.533,-35.1,604884.000000</coordinates>
					<extrude>1</extrude>
				</Point>
			</Placemark>
			<Placemark>
				<name>Richmond, AUSTRALIA: 62 hits</name>
				<styleUrl>#sphere_icon</styleUrl>
				<Point>
					<altitudeMode>relativeToGround</altitudeMode>
					<coordinates>143.133,-20.7167,925432.000000</coordinates>
					<extrude>1</extrude>
				</Point>
			</Placemark>